{
  "routes": [
    {
      "route_id": "IDFM:C01380",
      "route_short_name": "10",
      "route_long_name": "10",
      "route_type": "Subway",
      "route_color": "C9910D",
      "route_url": null,
      "id_ilico": "C01380",
      "operatorname": "RATP",
      "networkname": null,
      "url": "https://www.ratp.fr/sites/default/files/lines-assets/plan-de-ligne/metro/plan-de-ligne_metro_ligne-10.pdf",
      "long_name_first": "1",
      "geo_point_2d": {
        "lon": 2.3003400592064946,
        "lat": 48.84717110903603
      }
    },
    {
      "route_id": "IDFM:C01371",
      "route_short_name": "1",
      "route_long_name": "1",
      "route_type": "Subway",
      "route_color": "FFBE00",
      "route_url": null,
      "id_ilico": "C01371",
      "operatorname": "RATP",
      "networkname": null,
      "url": "https://www.ratp.fr/sites/default/files/lines-assets/plan-de-ligne/metro/plan-de-ligne_metro_ligne-1.pdf",
      "long_name_first": "1",
      "geo_point_2d": {
        "lon": 2.3299228902378135,
        "lat": 48.86524383472558
      }
    },
    {
      "route_id": "IDFM:C01386",
      "route_short_name": "3B",
      "route_long_name": "3B",
      "route_type": "Subway",
      "route_color": "6EC4E8",
      "route_url": null,
      "id_ilico": "C01386",
      "operatorname": "RATP",
      "networkname": null,
      "url": "https://www.ratp.fr/sites/default/files/lines-assets/plan-de-ligne/metro/plan-de-ligne_metro_ligne-3b.pdf",
      "long_name_first": "3",
      "geo_point_2d": {
        "lon": 2.4030809868334333,
        "lat": 48.870602267322354
      }
    },
    {
      "route_id": "IDFM:C01374",
      "route_short_name": "4",
      "route_long_name": "4",
      "route_type": "Subway",
      "route_color": "A0006E",
      "route_url": null,
      "id_ilico": "C01374",
      "operatorname": "RATP",
      "networkname": null,
      "url": "https://www.ratp.fr/sites/default/files/lines-assets/plan-de-ligne/metro/plan-de-ligne_metro_ligne-4.pdf",
      "long_name_first": "4",
      "geo_point_2d": {
        "lon": 2.3385449351024,
        "lat": 48.85308150963762
      }
    },
    {
      "route_id": "IDFM:C01376",
      "route_short_name": "6",
      "route_long_name": "6",
      "route_type": "Subway",
      "route_color": "6ECA97",
      "route_url": null,
      "id_ilico": "C01376",
      "operatorname": "RATP",
      "networkname": null,
      "url": "https://www.ratp.fr/sites/default/files/lines-assets/plan-de-ligne/metro/plan-de-ligne_metro_ligne-6.pdf",
      "long_name_first": "6",
      "geo_point_2d": {
        "lon": 2.337494120575029,
        "lat": 48.841931473955206
      }
    },
    {
      "route_id": "IDFM:C01378",
      "route_short_name": "8",
      "route_long_name": "8",
      "route_type": "Subway",
      "route_color": "D282BE",
      "route_url": null,
      "id_ilico": "C01378",
      "operatorname": "RATP",
      "networkname": null,
      "url": "https://www.ratp.fr/sites/default/files/lines-assets/plan-de-ligne/metro/plan-de-ligne_metro_ligne-8.pdf",
      "long_name_first": "8",
      "geo_point_2d": {
        "lon": 2.3675171195087836,
        "lat": 48.84145313727695
      }
    },
    {
      "route_id": "IDFM:C01379",
      "route_short_name": "9",
      "route_long_name": "9",
      "route_type": "Subway",
      "route_color": "B6BD00",
      "route_url": null,
      "id_ilico": "C01379",
      "operatorname": "RATP",
      "networkname": null,
      "url": "https://www.ratp.fr/sites/default/files/lines-assets/plan-de-ligne/metro/plan-de-ligne_metro_ligne-9.pdf",
      "long_name_first": "9",
      "geo_point_2d": {
        "lon": 2.343270148971878,
        "lat": 48.85946175326896
      }
    },
    {
      "route_id": "IDFM:C01382",
      "route_short_name": "12",
      "route_long_name": "12",
      "route_type": "Subway",
      "route_color": "007852",
      "route_url": null,
      "id_ilico": "C01382",
      "operatorname": "RATP",
      "networkname": null,
      "url": "https://www.ratp.fr/sites/default/files/lines-assets/plan-de-ligne/metro/plan-de-ligne_metro_ligne-12.pdf",
      "long_name_first": "1",
      "geo_point_2d": {
        "lon": 2.3300037782725855,
        "lat": 48.86806075965758
      }
    },
    {
      "route_id": "IDFM:C01377",
      "route_short_name": "7",
      "route_long_name": "7",
      "route_type": "Subway",
      "route_color": "F49FB3",
      "route_url": null,
      "id_ilico": "C01377",
      "operatorname": "RATP",
      "networkname": null,
      "url": "https://www.ratp.fr/sites/default/files/lines-assets/plan-de-ligne/metro/plan-de-ligne_metro_ligne-7.1618237892.pdf",
      "long_name_first": "7",
      "geo_point_2d": {
        "lon": 2.3631758058482024,
        "lat": 48.85589825611279
      }
    },
    {
      "route_id": "IDFM:C01375",
      "route_short_name": "5",
      "route_long_name": "5",
      "route_type": "Subway",
      "route_color": "FF7E2E",
      "route_url": null,
      "id_ilico": "C01375",
      "operatorname": "RATP",
      "networkname": null,
      "url": "https://www.ratp.fr/sites/default/files/lines-assets/plan-de-ligne/metro/plan-de-ligne_metro_ligne-5.pdf",
      "long_name_first": "5",
      "geo_point_2d": {
        "lon": 2.387345751686032,
        "lat": 48.87872054142073
      }
    },
    {
      "route_id": "IDFM:C01372",
      "route_short_name": "2",
      "route_long_name": "2",
      "route_type": "Subway",
      "route_color": "0055C8",
      "route_url": null,
      "id_ilico": "C01372",
      "operatorname": "RATP",
      "networkname": null,
      "url": "https://www.ratp.fr/sites/default/files/lines-assets/plan-de-ligne/metro/plan-de-ligne_metro_ligne-2.pdf",
      "long_name_first": "2",
      "geo_point_2d": {
        "lon": 2.34297809072141,
        "lat": 48.87603939237403
      }
    },
    {
      "route_id": "IDFM:C01384",
      "route_short_name": "14",
      "route_long_name": "14",
      "route_type": "Subway",
      "route_color": "62259D",
      "route_url": null,
      "id_ilico": "C01384",
      "operatorname": "RATP",
      "networkname": null,
      "url": "https://ilico.iledefrance-mobilites.fr/uploads/plans/20240621T143138Z-20e94a14-b7b7-4826-a344-372c0ac054c1.pdf",
      "long_name_first": "1",
      "geo_point_2d": {
        "lon": 2.350909327812072,
        "lat": 48.83702530011806
      }
    },
    {
      "route_id": "IDFM:C01387",
      "route_short_name": "7B",
      "route_long_name": "7B",
      "route_type": "Subway",
      "route_color": "6ECA97",
      "route_url": null,
      "id_ilico": "C01387",
      "operatorname": "RATP",
      "networkname": null,
      "url": "https://www.ratp.fr/sites/default/files/lines-assets/plan-de-ligne/metro/plan-de-ligne_metro_ligne-7b.pdf",
      "long_name_first": "7",
      "geo_point_2d": {
        "lon": 2.381741551634785,
        "lat": 48.88006689891539
      }
    },
    {
      "route_id": "IDFM:C01383",
      "route_short_name": "13",
      "route_long_name": "13",
      "route_type": "Subway",
      "route_color": "6EC4E8",
      "route_url": null,
      "id_ilico": "C01383",
      "operatorname": "RATP",
      "networkname": null,
      "url": "https://www.ratp.fr/sites/default/files/lines-assets/plan-de-ligne/metro/plan-de-ligne_metro_ligne-13.1607695529.pdf",
      "long_name_first": "1",
      "geo_point_2d": {
        "lon": 2.3188914347613,
        "lat": 48.88290530909603
      }
    },
    {
      "route_id": "IDFM:C01373",
      "route_short_name": "3",
      "route_long_name": "3",
      "route_type": "Subway",
      "route_color": "6E6E00",
      "route_url": null,
      "id_ilico": "C01373",
      "operatorname": "RATP",
      "networkname": null,
      "url": "https://www.ratp.fr/sites/default/files/lines-assets/plan-de-ligne/metro/plan-de-ligne_metro_ligne-3.pdf",
      "long_name_first": "3",
      "geo_point_2d": {
        "lon": 2.3452011514034554,
        "lat": 48.87285149653619
      }
    },
    {
      "route_id": "IDFM:C01381",
      "route_short_name": "11",
      "route_long_name": "11",
      "route_type": "Subway",
      "route_color": "704B1C",
      "route_url": null,
      "id_ilico": "C01381",
      "operatorname": "RATP",
      "networkname": null,
      "url": "https://ilico.iledefrance-mobilites.fr/uploads/plans/20240704T125723Z-6531b8bf-8fa3-4600-a765-5e12e5ba03a8.pdf",
      "long_name_first": "1",
      "geo_point_2d": {
        "lon": 2.4076891847549002,
        "lat": 48.87529946855775
      }
    }
  ],
  "stops": [
    {
      "stop_id": "IDFM:21784",
      "stop_name": "Pointe du Lac",
      "stop_lat": 48.768752248609914,
      "stop_lon": 2.464290193819998,
      "route_id": "IDFM:C01378",
      "parent_station": "IDFM:69884"
    },
    {
      "stop_id": "IDFM:21902",
      "stop_name": "République",
      "stop_lat": 48.86712186124499,
      "stop_lon": 2.364283168306328,
      "route_id": "IDFM:C01373",
      "parent_station": "IDFM:71311"
    },
    {
      "stop_id": "IDFM:21903",
      "stop_name": "République",
      "stop_lat": 48.867687468165165,
      "stop_lon": 2.3640990472225725,
      "route_id": "IDFM:C01375",
      "parent_station": "IDFM:71311"
    },
    {
      "stop_id": "IDFM:21904",
      "stop_name": "Michel-Ange - Molitor",
      "stop_lat": 48.84515597018703,
      "stop_lon": 2.2618218573220084,
      "route_id": "IDFM:C01380",
      "parent_station": "IDFM:73658"
    },
    {
      "stop_id": "IDFM:21905",
      "stop_name": "Oberkampf",
      "stop_lat": 48.864581198067484,
      "stop_lon": 2.3685262686038397,
      "route_id": "IDFM:C01375",
      "parent_station": "IDFM:71803"
    },
    {
      "stop_id": "IDFM:21906",
      "stop_name": "Havre-Caumartin",
      "stop_lat": 48.87346783937801,
      "stop_lon": 2.3274627984235092,
      "route_id": "IDFM:C01373",
      "parent_station": "IDFM:482368"
    },
    {
      "stop_id": "IDFM:21907",
      "stop_name": "Michel-Ange - Auteuil",
      "stop_lat": 48.84797535417627,
      "stop_lon": 2.263989525333329,
      "route_id": "IDFM:C01380",
      "parent_station": "IDFM:71206"
    },
    {
      "stop_id": "IDFM:21908",
      "stop_name": "Rue de la Pompe",
      "stop_lat": 48.863951708879945,
      "stop_lon": 2.2778858979590564,
      "route_id": "IDFM:C01379",
      "parent_station": "IDFM:71292"
    },
    {
      "stop_id": "IDFM:21909",
      "stop_name": "Grands Boulevards",
      "stop_lat": 48.87141461757831,
      "stop_lon": 2.343167503558387,
      "route_id": "IDFM:C01379",
      "parent_station": "IDFM:71326"
    },
    {
      "stop_id": "IDFM:21910",
      "stop_name": "Saint-Ambroise",
      "stop_lat": 48.86141665790915,
      "stop_lon": 2.3738805382115475,
      "route_id": "IDFM:C01379",
      "parent_station": "IDFM:71781"
    },
    {
      "stop_id": "IDFM:21911",
      "stop_name": "Saint-Augustin",
      "stop_lat": 48.87454661293485,
      "stop_lon": 2.3210135978085997,
      "route_id": "IDFM:C01379",
      "parent_station": "IDFM:73690"
    },
    {
      "stop_id": "IDFM:21912",
      "stop_name": "Saint-Philippe du Roule",
      "stop_lat": 48.87215435003593,
      "stop_lon": 2.310001699600818,
      "route_id": "IDFM:C01379",
      "parent_station": "IDFM:71334"
    },
    {
      "stop_id": "IDFM:21913",
      "stop_name": "Porte de Montreuil",
      "stop_lat": 48.853563500943025,
      "stop_lon": 2.4107036110235414,
      "route_id": "IDFM:C01379",
      "parent_station": "IDFM:71710"
    },
    {
      "stop_id": "IDFM:21914",
      "stop_name": "Porte de Saint-Cloud",
      "stop_lat": 48.83795840561949,
      "stop_lon": 2.2570461929221506,
      "route_id": "IDFM:C01379",
      "parent_station": "IDFM:71084"
    },
    {
      "stop_id": "IDFM:21915",
      "stop_name": "Ranelagh",
      "stop_lat": 48.855306214887065,
      "stop_lon": 2.270032697561899,
      "route_id": "IDFM:C01379",
      "parent_station": "IDFM:71243"
    },
    {
      "stop_id": "IDFM:21916",
      "stop_name": "Voltaire",
      "stop_lat": 48.857735295553454,
      "stop_lon": 2.3802080115879227,
      "route_id": "IDFM:C01379",
      "parent_station": "IDFM:71750"
    },
    {
      "stop_id": "IDFM:21917",
      "stop_name": "Trocadéro",
      "stop_lat": 48.863088061116,
      "stop_lon": 2.28683987979629,
      "route_id": "IDFM:C01379",
      "parent_station": "IDFM:71285"
    },
    {
      "stop_id": "IDFM:21918",
      "stop_name": "République",
      "stop_lat": 48.86739447922248,
      "stop_lon": 2.3631211111325285,
      "route_id": "IDFM:C01379",
      "parent_station": "IDFM:71311"
    },
    {
      "stop_id": "IDFM:21919",
      "stop_name": "Nation",
      "stop_lat": 48.84888521841715,
      "stop_lon": 2.3959437210498136,
      "route_id": "IDFM:C01379",
      "parent_station": "IDFM:71673"
    },
    {
      "stop_id": "IDFM:21920",
      "stop_name": "Strasbourg - Saint-Denis",
      "stop_lat": 48.869349679171926,
      "stop_lon": 2.3537315826731833,
      "route_id": "IDFM:C01379",
      "parent_station": "IDFM:73633"
    },
    {
      "stop_id": "IDFM:21921",
      "stop_name": "Richelieu - Drouot",
      "stop_lat": 48.872135870317955,
      "stop_lon": 2.3385912215385414,
      "route_id": "IDFM:C01379",
      "parent_station": "IDFM:71330"
    },
    {
      "stop_id": "IDFM:21922",
      "stop_name": "Michel-Ange - Auteuil",
      "stop_lat": 48.84767825351756,
      "stop_lon": 2.2639392129884905,
      "route_id": "IDFM:C01379",
      "parent_station": "IDFM:71206"
    },
    {
      "stop_id": "IDFM:21923",
      "stop_name": "Michel-Ange - Molitor",
      "stop_lat": 48.84491122756327,
      "stop_lon": 2.261511916905205,
      "route_id": "IDFM:C01379",
      "parent_station": "IDFM:73658"
    },
    {
      "stop_id": "IDFM:21924",
      "stop_name": "Miromesnil",
      "stop_lat": 48.8737728492328,
      "stop_lon": 2.3146430401104467,
      "route_id": "IDFM:C01379",
      "parent_station": "IDFM:71346"
    },
    {
      "stop_id": "IDFM:21925",
      "stop_name": "Oberkampf",
      "stop_lat": 48.86477709852134,
      "stop_lon": 2.3681558453945515,
      "route_id": "IDFM:C01379",
      "parent_station": "IDFM:71803"
    },
    {
      "stop_id": "IDFM:21926",
      "stop_name": "Havre-Caumartin",
      "stop_lat": 48.87366675194512,
      "stop_lon": 2.327651103418782,
      "route_id": "IDFM:C01379",
      "parent_station": "IDFM:482368"
    },
    {
      "stop_id": "IDFM:21927",
      "stop_name": "Iéna",
      "stop_lat": 48.864685839288676,
      "stop_lon": 2.293906396859107,
      "route_id": "IDFM:C01379",
      "parent_station": "IDFM:71294"
    },
    {
      "stop_id": "IDFM:21928",
      "stop_name": "Jasmin",
      "stop_lat": 48.852462147844555,
      "stop_lon": 2.268219083521012,
      "route_id": "IDFM:C01379",
      "parent_station": "IDFM:73657"
    },
    {
      "stop_id": "IDFM:21929",
      "stop_name": "La Muette",
      "stop_lat": 48.85809196689865,
      "stop_lon": 2.2740962446697224,
      "route_id": "IDFM:C01379",
      "parent_station": "IDFM:474150"
    },
    {
      "stop_id": "IDFM:21930",
      "stop_name": "Exelmans",
      "stop_lat": 48.84258027627653,
      "stop_lon": 2.259800845144346,
      "route_id": "IDFM:C01379",
      "parent_station": "IDFM:71124"
    },
    {
      "stop_id": "IDFM:21931",
      "stop_name": "Franklin D. Roosevelt",
      "stop_lat": 48.86872488799857,
      "stop_lon": 2.309488192337113,
      "route_id": "IDFM:C01379",
      "parent_station": "IDFM:71318"
    },
    {
      "stop_id": "IDFM:21932",
      "stop_name": "Chaussée d'Antin - La Fayette",
      "stop_lat": 48.87288385004922,
      "stop_lon": 2.334000835220775,
      "route_id": "IDFM:C01379",
      "parent_station": "IDFM:73689"
    },
    {
      "stop_id": "IDFM:21933",
      "stop_name": "Bonne Nouvelle",
      "stop_lat": 48.8706433160169,
      "stop_lon": 2.3484940979375373,
      "route_id": "IDFM:C01379",
      "parent_station": "IDFM:71320"
    },
    {
      "stop_id": "IDFM:21934",
      "stop_name": "Charonne",
      "stop_lat": 48.85500743705073,
      "stop_lon": 2.3848878986690423,
      "route_id": "IDFM:C01379",
      "parent_station": "IDFM:73647"
    },
    {
      "stop_id": "IDFM:21935",
      "stop_name": "Alma - Marceau",
      "stop_lat": 48.8647282422178,
      "stop_lon": 2.301130527470699,
      "route_id": "IDFM:C01379",
      "parent_station": "IDFM:71290"
    },
    {
      "stop_id": "IDFM:21936",
      "stop_name": "Maraîchers",
      "stop_lat": 48.85273102047999,
      "stop_lon": 2.406038544798052,
      "route_id": "IDFM:C01379",
      "parent_station": "IDFM:71703"
    },
    {
      "stop_id": "IDFM:21937",
      "stop_name": "République",
      "stop_lat": 48.86794303120089,
      "stop_lon": 2.364804805140413,
      "route_id": "IDFM:C01381",
      "parent_station": "IDFM:71311"
    },
    {
      "stop_id": "IDFM:21938",
      "stop_name": "Pont de Sèvres",
      "stop_lat": 48.82968726438348,
      "stop_lon": 2.2305185727726955,
      "route_id": "IDFM:C01379",
      "parent_station": "IDFM:70698"
    },
    {
      "stop_id": "IDFM:21939",
      "stop_name": "Billancourt",
      "stop_lat": 48.83183051284947,
      "stop_lon": 2.237965973200589,
      "route_id": "IDFM:C01379",
      "parent_station": "IDFM:71034"
    },
    {
      "stop_id": "IDFM:21940",
      "stop_name": "Marcel Sembat",
      "stop_lat": 48.83380810724753,
      "stop_lon": 2.24346821405889,
      "route_id": "IDFM:C01379",
      "parent_station": "IDFM:71054"
    },
    {
      "stop_id": "IDFM:21941",
      "stop_name": "Mairie de Montreuil",
      "stop_lat": 48.8622744369706,
      "stop_lon": 2.4418193772459085,
      "route_id": "IDFM:C01379",
      "parent_station": "IDFM:71785"
    },
    {
      "stop_id": "IDFM:21942",
      "stop_name": "Robespierre",
      "stop_lat": 48.855673808550314,
      "stop_lon": 2.4229730864963517,
      "route_id": "IDFM:C01379",
      "parent_station": "IDFM:71725"
    },
    {
      "stop_id": "IDFM:21943",
      "stop_name": "Croix de Chavaux",
      "stop_lat": 48.857992585158016,
      "stop_lon": 2.4358546126745826,
      "route_id": "IDFM:C01379",
      "parent_station": "IDFM:71756"
    },
    {
      "stop_id": "IDFM:21945",
      "stop_name": "Gambetta",
      "stop_lat": 48.865032564464,
      "stop_lon": 2.398537305704572,
      "route_id": "IDFM:C01386",
      "parent_station": "IDFM:71808"
    },
    {
      "stop_id": "IDFM:21946",
      "stop_name": "Saint-Fargeau",
      "stop_lat": 48.87184337222297,
      "stop_lon": 2.4044981831688688,
      "route_id": "IDFM:C01386",
      "parent_station": "IDFM:71860"
    },
    {
      "stop_id": "IDFM:21947",
      "stop_name": "Porte des Lilas",
      "stop_lat": 48.87656859902798,
      "stop_lon": 2.4070619733807948,
      "route_id": "IDFM:C01386",
      "parent_station": "IDFM:71889"
    },
    {
      "stop_id": "IDFM:21948",
      "stop_name": "Pelleport",
      "stop_lat": 48.86842046799948,
      "stop_lon": 2.40160636134298,
      "route_id": "IDFM:C01386",
      "parent_station": "IDFM:71828"
    },
    {
      "stop_id": "IDFM:21949",
      "stop_name": "Porte des Lilas",
      "stop_lat": 48.87723143067265,
      "stop_lon": 2.4065226763982275,
      "route_id": "IDFM:C01381",
      "parent_station": "IDFM:71889"
    },
    {
      "stop_id": "IDFM:21950",
      "stop_name": "Gambetta",
      "stop_lat": 48.86488271295642,
      "stop_lon": 2.397353102563538,
      "route_id": "IDFM:C01373",
      "parent_station": "IDFM:71808"
    },
    {
      "stop_id": "IDFM:21951",
      "stop_name": "Place des Fêtes",
      "stop_lat": 48.87672366197325,
      "stop_lon": 2.393139370360497,
      "route_id": "IDFM:C01381",
      "parent_station": "IDFM:71885"
    },
    {
      "stop_id": "IDFM:21952",
      "stop_name": "Jaurès",
      "stop_lat": 48.88302391342934,
      "stop_lon": 2.371438959985608,
      "route_id": "IDFM:C01375",
      "parent_station": "IDFM:71940"
    },
    {
      "stop_id": "IDFM:21954",
      "stop_name": "Olympiades",
      "stop_lat": 48.827123441429386,
      "stop_lon": 2.3669231215308075,
      "route_id": "IDFM:C01384",
      "parent_station": "IDFM:71557"
    },
    {
      "stop_id": "IDFM:21955",
      "stop_name": "Bibliothèque François Mitterrand",
      "stop_lat": 48.830006377536904,
      "stop_lon": 2.3764237443204546,
      "route_id": "IDFM:C01384",
      "parent_station": "IDFM:71572"
    },
    {
      "stop_id": "IDFM:21956",
      "stop_name": "Cour Saint-Emilion",
      "stop_lat": 48.83334999725014,
      "stop_lon": 2.386464909364189,
      "route_id": "IDFM:C01384",
      "parent_station": "IDFM:71576"
    },
    {
      "stop_id": "IDFM:21957",
      "stop_name": "Bercy",
      "stop_lat": 48.84014763512746,
      "stop_lon": 2.3791909087742873,
      "route_id": "IDFM:C01384",
      "parent_station": "IDFM:71607"
    },
    {
      "stop_id": "IDFM:21958",
      "stop_name": "Gare de Lyon",
      "stop_lat": 48.8442498880687,
      "stop_lon": 2.372519782814122,
      "route_id": "IDFM:C01384",
      "parent_station": "IDFM:73626"
    },
    {
      "stop_id": "IDFM:21959",
      "stop_name": "Châtelet",
      "stop_lat": 48.85951531585984,
      "stop_lon": 2.346275248188987,
      "route_id": "IDFM:C01384",
      "parent_station": "IDFM:71264"
    },
    {
      "stop_id": "IDFM:21960",
      "stop_name": "Pyramides",
      "stop_lat": 48.865755527376756,
      "stop_lon": 2.3346236060049232,
      "route_id": "IDFM:C01384",
      "parent_station": "IDFM:73788"
    },
    {
      "stop_id": "IDFM:21961",
      "stop_name": "Madeleine",
      "stop_lat": 48.87054467671624,
      "stop_lon": 2.3258100487932776,
      "route_id": "IDFM:C01384",
      "parent_station": "IDFM:71324"
    },
    {
      "stop_id": "IDFM:21962",
      "stop_name": "Saint-Lazare",
      "stop_lat": 48.87560743718584,
      "stop_lon": 2.324122029700433,
      "route_id": "IDFM:C01384",
      "parent_station": "IDFM:71370"
    },
    {
      "stop_id": "IDFM:21963",
      "stop_name": "Saint-Lazare",
      "stop_lat": 48.875025603040974,
      "stop_lon": 2.3246067760696794,
      "route_id": "IDFM:C01373",
      "parent_station": "IDFM:71370"
    },
    {
      "stop_id": "IDFM:21964",
      "stop_name": "Saint-Lazare",
      "stop_lat": 48.875689121953926,
      "stop_lon": 2.3274477500193202,
      "route_id": "IDFM:C01382",
      "parent_station": "IDFM:71370"
    },
    {
      "stop_id": "IDFM:21965",
      "stop_name": "Madeleine",
      "stop_lat": 48.8700546880179,
      "stop_lon": 2.325039317039756,
      "route_id": "IDFM:C01382",
      "parent_station": "IDFM:71324"
    },
    {
      "stop_id": "IDFM:21966",
      "stop_name": "Châtelet",
      "stop_lat": 48.85776111354502,
      "stop_lon": 2.3478374055687867,
      "route_id": "IDFM:C01381",
      "parent_station": "IDFM:71264"
    },
    {
      "stop_id": "IDFM:21967",
      "stop_name": "Gare d'Austerlitz",
      "stop_lat": 48.842355035073275,
      "stop_lon": 2.3645307640842486,
      "route_id": "IDFM:C01380",
      "parent_station": "IDFM:71135"
    },
    {
      "stop_id": "IDFM:21968",
      "stop_name": "Jussieu",
      "stop_lat": 48.846197891637004,
      "stop_lon": 2.3549316718232256,
      "route_id": "IDFM:C01380",
      "parent_station": "IDFM:71148"
    },
    {
      "stop_id": "IDFM:21969",
      "stop_name": "La Motte-Picquet - Grenelle",
      "stop_lat": 48.84963080443241,
      "stop_lon": 2.2985257262366363,
      "route_id": "IDFM:C01380",
      "parent_station": "IDFM:71199"
    },
    {
      "stop_id": "IDFM:21970",
      "stop_name": "Duroc",
      "stop_lat": 48.84675637808778,
      "stop_lon": 2.3162247549746047,
      "route_id": "IDFM:C01380",
      "parent_station": "IDFM:71159"
    },
    {
      "stop_id": "IDFM:21971",
      "stop_name": "Église d'Auteuil",
      "stop_lat": 48.84714336145718,
      "stop_lon": 2.2691113890218917,
      "route_id": "IDFM:C01380",
      "parent_station": "IDFM:71166"
    },
    {
      "stop_id": "IDFM:21972",
      "stop_name": "Javel - André Citroën",
      "stop_lat": 48.84618110622323,
      "stop_lon": 2.278009496527359,
      "route_id": "IDFM:C01380",
      "parent_station": "IDFM:71150"
    },
    {
      "stop_id": "IDFM:21973",
      "stop_name": "Mabillon",
      "stop_lat": 48.85284373829949,
      "stop_lon": 2.335142819346476,
      "route_id": "IDFM:C01380",
      "parent_station": "IDFM:73639"
    },
    {
      "stop_id": "IDFM:21974",
      "stop_name": "Porte d'Auteuil",
      "stop_lat": 48.84812886119474,
      "stop_lon": 2.2582639186231943,
      "route_id": "IDFM:C01380",
      "parent_station": "IDFM:71169"
    },
    {
      "stop_id": "IDFM:21975",
      "stop_name": "Maubert - Mutualité",
      "stop_lat": 48.85010969451494,
      "stop_lon": 2.348219343927666,
      "route_id": "IDFM:C01380",
      "parent_station": "IDFM:71190"
    },
    {
      "stop_id": "IDFM:21976",
      "stop_name": "Sèvres - Babylone",
      "stop_lat": 48.85093150598804,
      "stop_lon": 2.326104689925573,
      "route_id": "IDFM:C01380",
      "parent_station": "IDFM:71203"
    },
    {
      "stop_id": "IDFM:21977",
      "stop_name": "Vaneau",
      "stop_lat": 48.84870050683084,
      "stop_lon": 2.321227717195941,
      "route_id": "IDFM:C01380",
      "parent_station": "IDFM:71170"
    },
    {
      "stop_id": "IDFM:21978",
      "stop_name": "Odéon",
      "stop_lat": 48.8519477060765,
      "stop_lon": 2.340619126473996,
      "route_id": "IDFM:C01380",
      "parent_station": "IDFM:73618"
    },
    {
      "stop_id": "IDFM:21979",
      "stop_name": "Ségur",
      "stop_lat": 48.847226390053955,
      "stop_lon": 2.3072520746428715,
      "route_id": "IDFM:C01380",
      "parent_station": "IDFM:71157"
    },
    {
      "stop_id": "IDFM:21980",
      "stop_name": "Sèvres - Babylone",
      "stop_lat": 48.85156530639137,
      "stop_lon": 2.326859663121737,
      "route_id": "IDFM:C01382",
      "parent_station": "IDFM:71203"
    },
    {
      "stop_id": "IDFM:21981",
      "stop_name": "Gare d'Austerlitz",
      "stop_lat": 48.84229779662816,
      "stop_lon": 2.3656078807625422,
      "route_id": "IDFM:C01375",
      "parent_station": "IDFM:71135"
    },
    {
      "stop_id": "IDFM:21982",
      "stop_name": "Mirabeau",
      "stop_lat": 48.84707750734599,
      "stop_lon": 2.2730641263728333,
      "route_id": "IDFM:C01380",
      "parent_station": "IDFM:71162"
    },
    {
      "stop_id": "IDFM:21983",
      "stop_name": "Cluny - La Sorbonne",
      "stop_lat": 48.851026876874485,
      "stop_lon": 2.3448963012120796,
      "route_id": "IDFM:C01380",
      "parent_station": "IDFM:73619"
    },
    {
      "stop_id": "IDFM:21984",
      "stop_name": "Cardinal Lemoine",
      "stop_lat": 48.84670003526311,
      "stop_lon": 2.3513280016731763,
      "route_id": "IDFM:C01380",
      "parent_station": "IDFM:71153"
    },
    {
      "stop_id": "IDFM:21985",
      "stop_name": "Chardon Lagache",
      "stop_lat": 48.84508829917885,
      "stop_lon": 2.26690547594029,
      "route_id": "IDFM:C01380",
      "parent_station": "IDFM:71141"
    },
    {
      "stop_id": "IDFM:21986",
      "stop_name": "Charles Michels",
      "stop_lat": 48.84636172348247,
      "stop_lon": 2.2856243417995747,
      "route_id": "IDFM:C01380",
      "parent_station": "IDFM:71156"
    },
    {
      "stop_id": "IDFM:21987",
      "stop_name": "Avenue Émile Zola",
      "stop_lat": 48.84695722990175,
      "stop_lon": 2.2950459810371475,
      "route_id": "IDFM:C01380",
      "parent_station": "IDFM:71158"
    },
    {
      "stop_id": "IDFM:21988",
      "stop_name": "Boulogne Jean Jaurès",
      "stop_lat": 48.842063301935575,
      "stop_lon": 2.239042669312605,
      "route_id": "IDFM:C01380",
      "parent_station": "IDFM:71147"
    },
    {
      "stop_id": "IDFM:21989",
      "stop_name": "Boulogne Pont de Saint-Cloud",
      "stop_lat": 48.84067248206251,
      "stop_lon": 2.2283125898228056,
      "route_id": "IDFM:C01380",
      "parent_station": "IDFM:70721"
    },
    {
      "stop_id": "IDFM:21990",
      "stop_name": "Hôtel de Ville",
      "stop_lat": 48.85757442237991,
      "stop_lon": 2.35154698561547,
      "route_id": "IDFM:C01381",
      "parent_station": "IDFM:415852"
    },
    {
      "stop_id": "IDFM:21991",
      "stop_name": "Pyrénées",
      "stop_lat": 48.87381265491752,
      "stop_lon": 2.384883957748741,
      "route_id": "IDFM:C01381",
      "parent_station": "IDFM:71864"
    },
    {
      "stop_id": "IDFM:21992",
      "stop_name": "Rambuteau",
      "stop_lat": 48.86119015695036,
      "stop_lon": 2.3532739485947713,
      "route_id": "IDFM:C01381",
      "parent_station": "IDFM:71273"
    },
    {
      "stop_id": "IDFM:21993",
      "stop_name": "Télégraphe",
      "stop_lat": 48.87551038418075,
      "stop_lon": 2.3986480899605933,
      "route_id": "IDFM:C01381",
      "parent_station": "IDFM:71870"
    },
    {
      "stop_id": "IDFM:21994",
      "stop_name": "Arts et Métiers",
      "stop_lat": 48.86553459885931,
      "stop_lon": 2.3567233472754983,
      "route_id": "IDFM:C01373",
      "parent_station": "IDFM:71293"
    },
    {
      "stop_id": "IDFM:21995",
      "stop_name": "Jourdain",
      "stop_lat": 48.875247348641416,
      "stop_lon": 2.389325378910096,
      "route_id": "IDFM:C01381",
      "parent_station": "IDFM:71868"
    },
    {
      "stop_id": "IDFM:21996",
      "stop_name": "Goncourt",
      "stop_lat": 48.8700070178386,
      "stop_lon": 2.3707644347484003,
      "route_id": "IDFM:C01381",
      "parent_station": "IDFM:71840"
    },
    {
      "stop_id": "IDFM:21997",
      "stop_name": "Arts et Métiers",
      "stop_lat": 48.86529961264491,
      "stop_lon": 2.3565081436435467,
      "route_id": "IDFM:C01381",
      "parent_station": "IDFM:71293"
    },
    {
      "stop_id": "IDFM:21998",
      "stop_name": "Belleville",
      "stop_lat": 48.871908975367674,
      "stop_lon": 2.376753738418521,
      "route_id": "IDFM:C01381",
      "parent_station": "IDFM:71853"
    },
    {
      "stop_id": "IDFM:21999",
      "stop_name": "Mairie des Lilas",
      "stop_lat": 48.87974365006289,
      "stop_lon": 2.4162978208011863,
      "route_id": "IDFM:C01381",
      "parent_station": "IDFM:71909"
    },
    {
      "stop_id": "IDFM:22000",
      "stop_name": "Saint-Marcel",
      "stop_lat": 48.83853898898134,
      "stop_lon": 2.3606397867113924,
      "route_id": "IDFM:C01375",
      "parent_station": "IDFM:71092"
    },
    {
      "stop_id": "IDFM:22001",
      "stop_name": "Stalingrad",
      "stop_lat": 48.8841445128949,
      "stop_lon": 2.367348121277192,
      "route_id": "IDFM:C01375",
      "parent_station": "IDFM:71961"
    },
    {
      "stop_id": "IDFM:22002",
      "stop_name": "Richard-Lenoir",
      "stop_lat": 48.859876937868705,
      "stop_lon": 2.371813630476951,
      "route_id": "IDFM:C01375",
      "parent_station": "IDFM:73648"
    },
    {
      "stop_id": "IDFM:22003",
      "stop_name": "Porte de Pantin",
      "stop_lat": 48.888535337600175,
      "stop_lon": 2.3920607143419303,
      "route_id": "IDFM:C01375",
      "parent_station": "IDFM:71989"
    },
    {
      "stop_id": "IDFM:22004",
      "stop_name": "Quai de la Rapée",
      "stop_lat": 48.84649085420337,
      "stop_lon": 2.365992890937552,
      "route_id": "IDFM:C01375",
      "parent_station": "IDFM:71637"
    },
    {
      "stop_id": "IDFM:22005",
      "stop_name": "Ourcq",
      "stop_lat": 48.88714990283661,
      "stop_lon": 2.3866765356019912,
      "route_id": "IDFM:C01375",
      "parent_station": "IDFM:71972"
    },
    {
      "stop_id": "IDFM:22006",
      "stop_name": "Place d'Italie",
      "stop_lat": 48.83096622708413,
      "stop_lon": 2.35559694336975,
      "route_id": "IDFM:C01375",
      "parent_station": "IDFM:71033"
    },
    {
      "stop_id": "IDFM:22007",
      "stop_name": "Gare du Nord",
      "stop_lat": 48.87970181695894,
      "stop_lon": 2.3572164888604563,
      "route_id": "IDFM:C01375",
      "parent_station": "IDFM:71410"
    },
    {
      "stop_id": "IDFM:22008",
      "stop_name": "Bréguet-Sabin",
      "stop_lat": 48.85624405468632,
      "stop_lon": 2.3701946685897517,
      "route_id": "IDFM:C01375",
      "parent_station": "IDFM:73621"
    },
    {
      "stop_id": "IDFM:22009",
      "stop_name": "Campo-Formio",
      "stop_lat": 48.835595431233266,
      "stop_lon": 2.358468834639247,
      "route_id": "IDFM:C01375",
      "parent_station": "IDFM:71063"
    },
    {
      "stop_id": "IDFM:22010",
      "stop_name": "Bastille",
      "stop_lat": 48.85328747830434,
      "stop_lon": 2.368922075646989,
      "route_id": "IDFM:C01375",
      "parent_station": "IDFM:463564"
    },
    {
      "stop_id": "IDFM:22011",
      "stop_name": "Jacques Bonsergent",
      "stop_lat": 48.870666468034706,
      "stop_lon": 2.3611315892483544,
      "route_id": "IDFM:C01375",
      "parent_station": "IDFM:71322"
    },
    {
      "stop_id": "IDFM:22012",
      "stop_name": "Laumière",
      "stop_lat": 48.88513384808583,
      "stop_lon": 2.3793909893523923,
      "route_id": "IDFM:C01375",
      "parent_station": "IDFM:71957"
    },
    {
      "stop_id": "IDFM:22013",
      "stop_name": "Gare de l'Est",
      "stop_lat": 48.87616299446643,
      "stop_lon": 2.35806459441865,
      "route_id": "IDFM:C01375",
      "parent_station": "IDFM:71359"
    },
    {
      "stop_id": "IDFM:22014",
      "stop_name": "Bobigny-Pantin - Raymond Queneau",
      "stop_lat": 48.89560207433252,
      "stop_lon": 2.426308679232036,
      "route_id": "IDFM:C01375",
      "parent_station": "IDFM:72039"
    },
    {
      "stop_id": "IDFM:22015",
      "stop_name": "Bobigny Pablo Picasso",
      "stop_lat": 48.9063655341063,
      "stop_lon": 2.4490271414582585,
      "route_id": "IDFM:C01375",
      "parent_station": "IDFM:72486"
    },
    {
      "stop_id": "IDFM:22016",
      "stop_name": "Église de Pantin",
      "stop_lat": 48.893163974098265,
      "stop_lon": 2.413119553706935,
      "route_id": "IDFM:C01375",
      "parent_station": "IDFM:72024"
    },
    {
      "stop_id": "IDFM:22017",
      "stop_name": "Hoche",
      "stop_lat": 48.89128939386479,
      "stop_lon": 2.4032119887626737,
      "route_id": "IDFM:C01375",
      "parent_station": "IDFM:72004"
    },
    {
      "stop_id": "IDFM:22018",
      "stop_name": "Réaumur - Sébastopol",
      "stop_lat": 48.86638175675157,
      "stop_lon": 2.3520507871028355,
      "route_id": "IDFM:C01373",
      "parent_station": "IDFM:73636"
    },
    {
      "stop_id": "IDFM:22019",
      "stop_name": "Parmentier",
      "stop_lat": 48.86524326053047,
      "stop_lon": 2.3747205969196896,
      "route_id": "IDFM:C01373",
      "parent_station": "IDFM:71801"
    },
    {
      "stop_id": "IDFM:22020",
      "stop_name": "Père Lachaise",
      "stop_lat": 48.86296417435419,
      "stop_lon": 2.386157046298338,
      "route_id": "IDFM:C01373",
      "parent_station": "IDFM:71787"
    },
    {
      "stop_id": "IDFM:22021",
      "stop_name": "Pereire",
      "stop_lat": 48.88484432273985,
      "stop_lon": 2.2976831860125837,
      "route_id": "IDFM:C01373",
      "parent_station": "IDFM:71453"
    },
    {
      "stop_id": "IDFM:22022",
      "stop_name": "Porte de Bagnolet",
      "stop_lat": 48.86432836987192,
      "stop_lon": 2.4088234090802456,
      "route_id": "IDFM:C01373",
      "parent_station": "IDFM:71799"
    },
    {
      "stop_id": "IDFM:22023",
      "stop_name": "Porte de Champerret",
      "stop_lat": 48.885736266685264,
      "stop_lon": 2.291848147336647,
      "route_id": "IDFM:C01373",
      "parent_station": "IDFM:71450"
    },
    {
      "stop_id": "IDFM:22024",
      "stop_name": "Quatre Septembre",
      "stop_lat": 48.86959592111917,
      "stop_lon": 2.3362786423248583,
      "route_id": "IDFM:C01373",
      "parent_station": "IDFM:71313"
    },
    {
      "stop_id": "IDFM:22025",
      "stop_name": "Rue Saint-Maur",
      "stop_lat": 48.86413108020325,
      "stop_lon": 2.380486332251813,
      "route_id": "IDFM:C01373",
      "parent_station": "IDFM:71795"
    },
    {
      "stop_id": "IDFM:22026",
      "stop_name": "Temple",
      "stop_lat": 48.86675662943444,
      "stop_lon": 2.361561234526356,
      "route_id": "IDFM:C01373",
      "parent_station": "IDFM:71296"
    },
    {
      "stop_id": "IDFM:22027",
      "stop_name": "Villiers",
      "stop_lat": 48.88107318307563,
      "stop_lon": 2.315815092646378,
      "route_id": "IDFM:C01373",
      "parent_station": "IDFM:71403"
    },
    {
      "stop_id": "IDFM:22028",
      "stop_name": "Wagram",
      "stop_lat": 48.88376067556563,
      "stop_lon": 2.3046251407269573,
      "route_id": "IDFM:C01373",
      "parent_station": "IDFM:71423"
    },
    {
      "stop_id": "IDFM:22029",
      "stop_name": "Sentier",
      "stop_lat": 48.86734660429376,
      "stop_lon": 2.3475538159377884,
      "route_id": "IDFM:C01373",
      "parent_station": "IDFM:73634"
    },
    {
      "stop_id": "IDFM:22030",
      "stop_name": "Opéra",
      "stop_lat": 48.87143742899726,
      "stop_lon": 2.331047286711241,
      "route_id": "IDFM:C01373",
      "parent_station": "IDFM:71337"
    },
    {
      "stop_id": "IDFM:22031",
      "stop_name": "Malesherbes",
      "stop_lat": 48.882763294053696,
      "stop_lon": 2.3094384103380805,
      "route_id": "IDFM:C01373",
      "parent_station": "IDFM:71416"
    },
    {
      "stop_id": "IDFM:22032",
      "stop_name": "Europe",
      "stop_lat": 48.878780759649736,
      "stop_lon": 2.3222946416498362,
      "route_id": "IDFM:C01373",
      "parent_station": "IDFM:73617"
    },
    {
      "stop_id": "IDFM:22033",
      "stop_name": "Bourse",
      "stop_lat": 48.868792843933164,
      "stop_lon": 2.3406785469758815,
      "route_id": "IDFM:C01373",
      "parent_station": "IDFM:73635"
    },
    {
      "stop_id": "IDFM:22034",
      "stop_name": "Louise Michel",
      "stop_lat": 48.88853900119613,
      "stop_lon": 2.2882778490679767,
      "route_id": "IDFM:C01373",
      "parent_station": "IDFM:73667"
    },
    {
      "stop_id": "IDFM:22035",
      "stop_name": "Pont de Levallois - Bécon",
      "stop_lat": 48.89718710383118,
      "stop_lon": 2.2801801985017236,
      "route_id": "IDFM:C01373",
      "parent_station": "IDFM:72057"
    },
    {
      "stop_id": "IDFM:22036",
      "stop_name": "Anatole France",
      "stop_lat": 48.892206617614,
      "stop_lon": 2.2849816963403193,
      "route_id": "IDFM:C01373",
      "parent_station": "IDFM:71519"
    },
    {
      "stop_id": "IDFM:22037",
      "stop_name": "Gallieni",
      "stop_lat": 48.86512770051251,
      "stop_lon": 2.4159299613832097,
      "route_id": "IDFM:C01373",
      "parent_station": "IDFM:71817"
    },
    {
      "stop_id": "IDFM:22038",
      "stop_name": "Montparnasse Bienvenue",
      "stop_lat": 48.84382361125447,
      "stop_lon": 2.323989185205003,
      "route_id": "IDFM:C01382",
      "parent_station": "IDFM:71139"
    },
    {
      "stop_id": "IDFM:22039",
      "stop_name": "Pasteur",
      "stop_lat": 48.842958015471986,
      "stop_lon": 2.312554745666783,
      "route_id": "IDFM:C01382",
      "parent_station": "IDFM:71125"
    },
    {
      "stop_id": "IDFM:22040",
      "stop_name": "Pigalle",
      "stop_lat": 48.882011788411084,
      "stop_lon": 2.3371840091053384,
      "route_id": "IDFM:C01382",
      "parent_station": "IDFM:71409"
    },
    {
      "stop_id": "IDFM:22041",
      "stop_name": "Porte de la Chapelle",
      "stop_lat": 48.89740242267042,
      "stop_lon": 2.359248542310361,
      "route_id": "IDFM:C01382",
      "parent_station": "IDFM:72064"
    },
    {
      "stop_id": "IDFM:22042",
      "stop_name": "Porte de Versailles",
      "stop_lat": 48.83230151439446,
      "stop_lon": 2.2881329450932197,
      "route_id": "IDFM:C01382",
      "parent_station": "IDFM:71045"
    },
    {
      "stop_id": "IDFM:22043",
      "stop_name": "Rue du Bac",
      "stop_lat": 48.85587553200213,
      "stop_lon": 2.3256727584985164,
      "route_id": "IDFM:C01382",
      "parent_station": "IDFM:71227"
    },
    {
      "stop_id": "IDFM:22044",
      "stop_name": "Saint-Georges",
      "stop_lat": 48.87841659490173,
      "stop_lon": 2.3375706403796697,
      "route_id": "IDFM:C01382",
      "parent_station": "IDFM:71366"
    },
    {
      "stop_id": "IDFM:22045",
      "stop_name": "Solférino",
      "stop_lat": 48.858550089641746,
      "stop_lon": 2.3231029882985132,
      "route_id": "IDFM:C01382",
      "parent_station": "IDFM:71270"
    },
    {
      "stop_id": "IDFM:22046",
      "stop_name": "Trinité - d'Estienne d'Orves",
      "stop_lat": 48.87625096700832,
      "stop_lon": 2.333030634158166,
      "route_id": "IDFM:C01382",
      "parent_station": "IDFM:71355"
    },
    {
      "stop_id": "IDFM:22047",
      "stop_name": "Vaugirard",
      "stop_lat": 48.839437918076904,
      "stop_lon": 2.3010745156545456,
      "route_id": "IDFM:C01382",
      "parent_station": "IDFM:71091"
    },
    {
      "stop_id": "IDFM:22048",
      "stop_name": "Volontaires",
      "stop_lat": 48.84141172841498,
      "stop_lon": 2.3079833805768515,
      "route_id": "IDFM:C01382",
      "parent_station": "IDFM:71113"
    },
    {
      "stop_id": "IDFM:22049",
      "stop_name": "Rennes",
      "stop_lat": 48.84833282904063,
      "stop_lon": 2.3277871847873874,
      "route_id": "IDFM:C01382",
      "parent_station": "IDFM:73640"
    },
    {
      "stop_id": "IDFM:22050",
      "stop_name": "Notre-Dame-de-Lorette",
      "stop_lat": 48.8760350312806,
      "stop_lon": 2.3378736192226386,
      "route_id": "IDFM:C01382",
      "parent_station": "IDFM:71350"
    },
    {
      "stop_id": "IDFM:22051",
      "stop_name": "Notre-Dame des Champs",
      "stop_lat": 48.84508150807547,
      "stop_lon": 2.328564944227944,
      "route_id": "IDFM:C01382",
      "parent_station": "IDFM:71138"
    },
    {
      "stop_id": "IDFM:22052",
      "stop_name": "Marcadet - Poissonniers",
      "stop_lat": 48.89145292865467,
      "stop_lon": 2.3499794329782024,
      "route_id": "IDFM:C01382",
      "parent_station": "IDFM:71511"
    },
    {
      "stop_id": "IDFM:22053",
      "stop_name": "Marx Dormoy",
      "stop_lat": 48.89060729278663,
      "stop_lon": 2.359945883178033,
      "route_id": "IDFM:C01382",
      "parent_station": "IDFM:71510"
    },
    {
      "stop_id": "IDFM:22054",
      "stop_name": "Jules Joffrin",
      "stop_lat": 48.892492268201934,
      "stop_lon": 2.3443200293804827,
      "route_id": "IDFM:C01382",
      "parent_station": "IDFM:71521"
    },
    {
      "stop_id": "IDFM:22055",
      "stop_name": "Lamarck - Caulaincourt",
      "stop_lat": 48.889699132276796,
      "stop_lon": 2.338463589982122,
      "route_id": "IDFM:C01382",
      "parent_station": "IDFM:71492"
    },
    {
      "stop_id": "IDFM:22056",
      "stop_name": "Falguière",
      "stop_lat": 48.844317683534335,
      "stop_lon": 2.317551235617027,
      "route_id": "IDFM:C01382",
      "parent_station": "IDFM:73641"
    },
    {
      "stop_id": "IDFM:22057",
      "stop_name": "Concorde",
      "stop_lat": 48.86615003482594,
      "stop_lon": 2.323181449571859,
      "route_id": "IDFM:C01382",
      "parent_station": "IDFM:71298"
    },
    {
      "stop_id": "IDFM:22058",
      "stop_name": "Convention",
      "stop_lat": 48.837125900520995,
      "stop_lon": 2.2963642614342694,
      "route_id": "IDFM:C01382",
      "parent_station": "IDFM:71075"
    },
    {
      "stop_id": "IDFM:22059",
      "stop_name": "Abbesses",
      "stop_lat": 48.884383574623314,
      "stop_lon": 2.338367478180517,
      "route_id": "IDFM:C01382",
      "parent_station": "IDFM:71432"
    },
    {
      "stop_id": "IDFM:22060",
      "stop_name": "Assemblée Nationale",
      "stop_lat": 48.861071939526084,
      "stop_lon": 2.320575836647556,
      "route_id": "IDFM:C01382",
      "parent_station": "IDFM:73642"
    },
    {
      "stop_id": "IDFM:22061",
      "stop_name": "Corentin Celton",
      "stop_lat": 48.826823295159116,
      "stop_lon": 2.2789586605256367,
      "route_id": "IDFM:C01382",
      "parent_station": "IDFM:70990"
    },
    {
      "stop_id": "IDFM:22062",
      "stop_name": "Mairie d'Issy",
      "stop_lat": 48.82416442588802,
      "stop_lon": 2.273560674093182,
      "route_id": "IDFM:C01382",
      "parent_station": "IDFM:70671"
    },
    {
      "stop_id": "IDFM:22072",
      "stop_name": "Nation",
      "stop_lat": 48.84845279707999,
      "stop_lon": 2.3957988351125254,
      "route_id": "IDFM:C01372",
      "parent_station": "IDFM:71673"
    },
    {
      "stop_id": "IDFM:22073",
      "stop_name": "Nation",
      "stop_lat": 48.84789550545761,
      "stop_lon": 2.3958598043279085,
      "route_id": "IDFM:C01376",
      "parent_station": "IDFM:71673"
    },
    {
      "stop_id": "IDFM:22074",
      "stop_name": "Saint-Paul (Le Marais)",
      "stop_lat": 48.85518742160445,
      "stop_lon": 2.3608852562751967,
      "route_id": "IDFM:C01371",
      "parent_station": "IDFM:71222"
    },
    {
      "stop_id": "IDFM:22075",
      "stop_name": "Tuileries",
      "stop_lat": 48.864550163577015,
      "stop_lon": 2.3297453212172794,
      "route_id": "IDFM:C01371",
      "parent_station": "IDFM:71284"
    },
    {
      "stop_id": "IDFM:22076",
      "stop_name": "Reuilly - Diderot",
      "stop_lat": 48.84723403765801,
      "stop_lon": 2.386056169673362,
      "route_id": "IDFM:C01371",
      "parent_station": "IDFM:71654"
    },
    {
      "stop_id": "IDFM:22077",
      "stop_name": "Porte de Vincennes",
      "stop_lat": 48.84700773108863,
      "stop_lon": 2.4108049967015006,
      "route_id": "IDFM:C01371",
      "parent_station": "IDFM:71663"
    },
    {
      "stop_id": "IDFM:22078",
      "stop_name": "Porte Maillot",
      "stop_lat": 48.87816265364455,
      "stop_lon": 2.2825838473615496,
      "route_id": "IDFM:C01371",
      "parent_station": "IDFM:71379"
    },
    {
      "stop_id": "IDFM:22079",
      "stop_name": "Palais Royal - Musée du Louvre",
      "stop_lat": 48.86222226557415,
      "stop_lon": 2.3364543677542517,
      "route_id": "IDFM:C01371",
      "parent_station": "IDFM:71297"
    },
    {
      "stop_id": "IDFM:22080",
      "stop_name": "Nation",
      "stop_lat": 48.848084289973976,
      "stop_lon": 2.3958439887237373,
      "route_id": "IDFM:C01371",
      "parent_station": "IDFM:71673"
    },
    {
      "stop_id": "IDFM:22081",
      "stop_name": "Louvre - Rivoli",
      "stop_lat": 48.86078090878698,
      "stop_lon": 2.3409026134809903,
      "route_id": "IDFM:C01371",
      "parent_station": "IDFM:73630"
    },
    {
      "stop_id": "IDFM:22082",
      "stop_name": "Franklin D. Roosevelt",
      "stop_lat": 48.8691648256349,
      "stop_lon": 2.309359666519628,
      "route_id": "IDFM:C01371",
      "parent_station": "IDFM:71318"
    },
    {
      "stop_id": "IDFM:22083",
      "stop_name": "Gare de Lyon",
      "stop_lat": 48.8456832067358,
      "stop_lon": 2.3731565937892047,
      "route_id": "IDFM:C01371",
      "parent_station": "IDFM:73626"
    },
    {
      "stop_id": "IDFM:22084",
      "stop_name": "George V",
      "stop_lat": 48.87203776458909,
      "stop_lon": 2.300759784978918,
      "route_id": "IDFM:C01371",
      "parent_station": "IDFM:71328"
    },
    {
      "stop_id": "IDFM:22085",
      "stop_name": "Concorde",
      "stop_lat": 48.866472156532026,
      "stop_lon": 2.3228909937191604,
      "route_id": "IDFM:C01371",
      "parent_station": "IDFM:71298"
    },
    {
      "stop_id": "IDFM:22086",
      "stop_name": "Charles de Gaulle - Etoile",
      "stop_lat": 48.87392926445533,
      "stop_lon": 2.2951172138230334,
      "route_id": "IDFM:C01371",
      "parent_station": "IDFM:71347"
    },
    {
      "stop_id": "IDFM:22087",
      "stop_name": "Châtelet",
      "stop_lat": 48.85922471342816,
      "stop_lon": 2.3457609541847755,
      "route_id": "IDFM:C01371",
      "parent_station": "IDFM:71264"
    },
    {
      "stop_id": "IDFM:22088",
      "stop_name": "Argentine",
      "stop_lat": 48.87566737659971,
      "stop_lon": 2.289435418542214,
      "route_id": "IDFM:C01371",
      "parent_station": "IDFM:71348"
    },
    {
      "stop_id": "IDFM:22089",
      "stop_name": "Bastille",
      "stop_lat": 48.85205429349772,
      "stop_lon": 2.368718961034089,
      "route_id": "IDFM:C01371",
      "parent_station": "IDFM:463564"
    },
    {
      "stop_id": "IDFM:22090",
      "stop_name": "Champs-Élysées - Clemenceau",
      "stop_lat": 48.867583959552555,
      "stop_lon": 2.314397292025236,
      "route_id": "IDFM:C01371",
      "parent_station": "IDFM:71305"
    },
    {
      "stop_id": "IDFM:22091",
      "stop_name": "Hôtel de Ville",
      "stop_lat": 48.85735240518587,
      "stop_lon": 2.3520676701391,
      "route_id": "IDFM:C01371",
      "parent_station": "IDFM:415852"
    },
    {
      "stop_id": "IDFM:22092",
      "stop_name": "Châtelet",
      "stop_lat": 48.859661211559086,
      "stop_lon": 2.3466414308440138,
      "route_id": "IDFM:C01374",
      "parent_station": "IDFM:71264"
    },
    {
      "stop_id": "IDFM:22093",
      "stop_name": "Champs-Élysées - Clemenceau",
      "stop_lat": 48.86750083759083,
      "stop_lon": 2.31401668387612,
      "route_id": "IDFM:C01383",
      "parent_station": "IDFM:71305"
    },
    {
      "stop_id": "IDFM:22094",
      "stop_name": "Charles de Gaulle - Etoile",
      "stop_lat": 48.87499457617108,
      "stop_lon": 2.2958117752357627,
      "route_id": "IDFM:C01372",
      "parent_station": "IDFM:71347"
    },
    {
      "stop_id": "IDFM:22095",
      "stop_name": "Charles de Gaulle - Etoile",
      "stop_lat": 48.87383861478572,
      "stop_lon": 2.294995735441831,
      "route_id": "IDFM:C01376",
      "parent_station": "IDFM:71347"
    },
    {
      "stop_id": "IDFM:22096",
      "stop_name": "Concorde",
      "stop_lat": 48.86652125193945,
      "stop_lon": 2.3220315426557194,
      "route_id": "IDFM:C01378",
      "parent_station": "IDFM:71298"
    },
    {
      "stop_id": "IDFM:22097",
      "stop_name": "Bastille",
      "stop_lat": 48.853425461693256,
      "stop_lon": 2.3695064282002,
      "route_id": "IDFM:C01378",
      "parent_station": "IDFM:463564"
    },
    {
      "stop_id": "IDFM:22098",
      "stop_name": "Reuilly - Diderot",
      "stop_lat": 48.84721292669797,
      "stop_lon": 2.3872010704093922,
      "route_id": "IDFM:C01378",
      "parent_station": "IDFM:71654"
    },
    {
      "stop_id": "IDFM:22099",
      "stop_name": "Pont de Neuilly",
      "stop_lat": 48.885489388974705,
      "stop_lon": 2.2584954293691255,
      "route_id": "IDFM:C01371",
      "parent_station": "IDFM:71442"
    },
    {
      "stop_id": "IDFM:22100",
      "stop_name": "Les Sablons",
      "stop_lat": 48.88129083793358,
      "stop_lon": 2.271904762259129,
      "route_id": "IDFM:C01371",
      "parent_station": "IDFM:425779"
    },
    {
      "stop_id": "IDFM:22101",
      "stop_name": "La Défense (Grande Arche)",
      "stop_lat": 48.89181786646099,
      "stop_lon": 2.2379881830988277,
      "route_id": "IDFM:C01371",
      "parent_station": "IDFM:71517"
    },
    {
      "stop_id": "IDFM:22102",
      "stop_name": "Esplanade de la Défense",
      "stop_lat": 48.88833173800946,
      "stop_lon": 2.2499040727323307,
      "route_id": "IDFM:C01371",
      "parent_station": "IDFM:71485"
    },
    {
      "stop_id": "IDFM:22103",
      "stop_name": "Saint-Mandé",
      "stop_lat": 48.846238208060065,
      "stop_lon": 2.4189623545327077,
      "route_id": "IDFM:C01371",
      "parent_station": "IDFM:71647"
    },
    {
      "stop_id": "IDFM:22104",
      "stop_name": "Château de Vincennes",
      "stop_lat": 48.84431751431355,
      "stop_lon": 2.440540095406114,
      "route_id": "IDFM:C01371",
      "parent_station": "IDFM:71634"
    },
    {
      "stop_id": "IDFM:22105",
      "stop_name": "Bérault",
      "stop_lat": 48.84540614839331,
      "stop_lon": 2.4292049740990573,
      "route_id": "IDFM:C01371",
      "parent_station": "IDFM:71650"
    },
    {
      "stop_id": "IDFM:22106",
      "stop_name": "Villiers",
      "stop_lat": 48.88130644704797,
      "stop_lon": 2.3157165772440385,
      "route_id": "IDFM:C01372",
      "parent_station": "IDFM:71403"
    },
    {
      "stop_id": "IDFM:22107",
      "stop_name": "Stalingrad",
      "stop_lat": 48.884243984567746,
      "stop_lon": 2.365751439124989,
      "route_id": "IDFM:C01372",
      "parent_station": "IDFM:71961"
    },
    {
      "stop_id": "IDFM:22108",
      "stop_name": "Ternes",
      "stop_lat": 48.8782007528283,
      "stop_lon": 2.2981136521983068,
      "route_id": "IDFM:C01372",
      "parent_station": "IDFM:71367"
    },
    {
      "stop_id": "IDFM:22109",
      "stop_name": "Victor Hugo",
      "stop_lat": 48.8698545716049,
      "stop_lon": 2.2859020006220643,
      "route_id": "IDFM:C01372",
      "parent_station": "IDFM:71315"
    },
    {
      "stop_id": "IDFM:22110",
      "stop_name": "Rome",
      "stop_lat": 48.882256139435015,
      "stop_lon": 2.3214039779193896,
      "route_id": "IDFM:C01372",
      "parent_station": "IDFM:71408"
    },
    {
      "stop_id": "IDFM:22111",
      "stop_name": "Porte Dauphine",
      "stop_lat": 48.871396795248316,
      "stop_lon": 2.2776327175452717,
      "route_id": "IDFM:C01372",
      "parent_station": "IDFM:474152"
    },
    {
      "stop_id": "IDFM:22112",
      "stop_name": "Père Lachaise",
      "stop_lat": 48.86248637862667,
      "stop_lon": 2.3876893260656895,
      "route_id": "IDFM:C01372",
      "parent_station": "IDFM:71787"
    },
    {
      "stop_id": "IDFM:22113",
      "stop_name": "Philippe Auguste",
      "stop_lat": 48.858175121260864,
      "stop_lon": 2.3905477055525735,
      "route_id": "IDFM:C01372",
      "parent_station": "IDFM:71751"
    },
    {
      "stop_id": "IDFM:22114",
      "stop_name": "Pigalle",
      "stop_lat": 48.882269542226226,
      "stop_lon": 2.338257976509587,
      "route_id": "IDFM:C01372",
      "parent_station": "IDFM:71409"
    },
    {
      "stop_id": "IDFM:22115",
      "stop_name": "Place de Clichy",
      "stop_lat": 48.88366908827266,
      "stop_lon": 2.3279583280102196,
      "route_id": "IDFM:C01372",
      "parent_station": "IDFM:71435"
    },
    {
      "stop_id": "IDFM:22116",
      "stop_name": "Ménilmontant",
      "stop_lat": 48.866440166781686,
      "stop_lon": 2.38353966877949,
      "route_id": "IDFM:C01372",
      "parent_station": "IDFM:71815"
    },
    {
      "stop_id": "IDFM:22117",
      "stop_name": "Monceau",
      "stop_lat": 48.880568770126835,
      "stop_lon": 2.309412967374703,
      "route_id": "IDFM:C01372",
      "parent_station": "IDFM:73671"
    },
    {
      "stop_id": "IDFM:22118",
      "stop_name": "Jaurès",
      "stop_lat": 48.88159683079925,
      "stop_lon": 2.370269867509251,
      "route_id": "IDFM:C01372",
      "parent_station": "IDFM:71940"
    },
    {
      "stop_id": "IDFM:22119",
      "stop_name": "La Chapelle",
      "stop_lat": 48.884386410852784,
      "stop_lon": 2.3604041692740987,
      "route_id": "IDFM:C01372",
      "parent_station": "IDFM:71434"
    },
    {
      "stop_id": "IDFM:22120",
      "stop_name": "Colonel Fabien",
      "stop_lat": 48.877695345805535,
      "stop_lon": 2.3705761028196575,
      "route_id": "IDFM:C01372",
      "parent_station": "IDFM:71893"
    },
    {
      "stop_id": "IDFM:22121",
      "stop_name": "Courcelles",
      "stop_lat": 48.87926525411311,
      "stop_lon": 2.3032943624252122,
      "route_id": "IDFM:C01372",
      "parent_station": "IDFM:71376"
    },
    {
      "stop_id": "IDFM:22122",
      "stop_name": "Alexandre Dumas",
      "stop_lat": 48.856199097341126,
      "stop_lon": 2.3945914186721278,
      "route_id": "IDFM:C01372",
      "parent_station": "IDFM:71728"
    },
    {
      "stop_id": "IDFM:22123",
      "stop_name": "Anvers",
      "stop_lat": 48.882868568843925,
      "stop_lon": 2.3441548403302916,
      "route_id": "IDFM:C01372",
      "parent_station": "IDFM:71419"
    },
    {
      "stop_id": "IDFM:22124",
      "stop_name": "Avron",
      "stop_lat": 48.85164854359716,
      "stop_lon": 2.3981875566593973,
      "route_id": "IDFM:C01372",
      "parent_station": "IDFM:71697"
    },
    {
      "stop_id": "IDFM:22125",
      "stop_name": "Blanche",
      "stop_lat": 48.88376635447715,
      "stop_lon": 2.3324843754343627,
      "route_id": "IDFM:C01372",
      "parent_station": "IDFM:71420"
    },
    {
      "stop_id": "IDFM:22126",
      "stop_name": "Couronnes",
      "stop_lat": 48.86932051914457,
      "stop_lon": 2.3805336747351005,
      "route_id": "IDFM:C01372",
      "parent_station": "IDFM:71834"
    },
    {
      "stop_id": "IDFM:22127",
      "stop_name": "Barbès - Rochechouart",
      "stop_lat": 48.88377608955688,
      "stop_lon": 2.3506070793550977,
      "route_id": "IDFM:C01372",
      "parent_station": "IDFM:71426"
    },
    {
      "stop_id": "IDFM:22128",
      "stop_name": "Belleville",
      "stop_lat": 48.872314077361665,
      "stop_lon": 2.3768306915222848,
      "route_id": "IDFM:C01372",
      "parent_station": "IDFM:71853"
    },
    {
      "stop_id": "IDFM:22129",
      "stop_name": "Place de Clichy",
      "stop_lat": 48.883737890227636,
      "stop_lon": 2.327398345647013,
      "route_id": "IDFM:C01383",
      "parent_station": "IDFM:71435"
    },
    {
      "stop_id": "IDFM:22130",
      "stop_name": "Barbès - Rochechouart",
      "stop_lat": 48.883402060486226,
      "stop_lon": 2.349629927853002,
      "route_id": "IDFM:C01374",
      "parent_station": "IDFM:71426"
    },
    {
      "stop_id": "IDFM:22131",
      "stop_name": "Raspail",
      "stop_lat": 48.83915635952557,
      "stop_lon": 2.330466993719873,
      "route_id": "IDFM:C01374",
      "parent_station": "IDFM:71088"
    },
    {
      "stop_id": "IDFM:22132",
      "stop_name": "Marcadet - Poissonniers",
      "stop_lat": 48.891280439844486,
      "stop_lon": 2.3496815417224775,
      "route_id": "IDFM:C01374",
      "parent_station": "IDFM:71511"
    },
    {
      "stop_id": "IDFM:22133",
      "stop_name": "Simplon",
      "stop_lat": 48.8938152613519,
      "stop_lon": 2.347794968187123,
      "route_id": "IDFM:C01374",
      "parent_station": "IDFM:71556"
    },
    {
      "stop_id": "IDFM:22134",
      "stop_name": "Strasbourg - Saint-Denis",
      "stop_lat": 48.86962358263758,
      "stop_lon": 2.354491616563834,
      "route_id": "IDFM:C01374",
      "parent_station": "IDFM:73633"
    },
    {
      "stop_id": "IDFM:22135",
      "stop_name": "Vavin",
      "stop_lat": 48.842242093452064,
      "stop_lon": 2.32902391746117,
      "route_id": "IDFM:C01374",
      "parent_station": "IDFM:71117"
    },
    {
      "stop_id": "IDFM:22136",
      "stop_name": "Saint-Germain-des-Prés",
      "stop_lat": 48.85357456382241,
      "stop_lon": 2.333947810798194,
      "route_id": "IDFM:C01374",
      "parent_station": "IDFM:71216"
    },
    {
      "stop_id": "IDFM:22137",
      "stop_name": "Saint-Michel",
      "stop_lat": 48.85358493521485,
      "stop_lon": 2.343964657062377,
      "route_id": "IDFM:C01374",
      "parent_station": "IDFM:73620"
    },
    {
      "stop_id": "IDFM:22138",
      "stop_name": "Saint-Placide",
      "stop_lat": 48.847041473609366,
      "stop_lon": 2.3268499626718526,
      "route_id": "IDFM:C01374",
      "parent_station": "IDFM:71184"
    },
    {
      "stop_id": "IDFM:22139",
      "stop_name": "Saint-Sulpice",
      "stop_lat": 48.85120862756671,
      "stop_lon": 2.330611953081543,
      "route_id": "IDFM:C01374",
      "parent_station": "IDFM:71202"
    },
    {
      "stop_id": "IDFM:22140",
      "stop_name": "Porte d'Orléans",
      "stop_lat": 48.823416351140224,
      "stop_lon": 2.3254932653821045,
      "route_id": "IDFM:C01374",
      "parent_station": "IDFM:70657"
    },
    {
      "stop_id": "IDFM:22141",
      "stop_name": "Porte de Clignancourt",
      "stop_lat": 48.897557781418705,
      "stop_lon": 2.3447472731828847,
      "route_id": "IDFM:C01374",
      "parent_station": "IDFM:478883"
    },
    {
      "stop_id": "IDFM:22142",
      "stop_name": "Réaumur - Sébastopol",
      "stop_lat": 48.86604305354321,
      "stop_lon": 2.352613903045621,
      "route_id": "IDFM:C01374",
      "parent_station": "IDFM:73636"
    },
    {
      "stop_id": "IDFM:22143",
      "stop_name": "Montparnasse Bienvenue",
      "stop_lat": 48.84385251452581,
      "stop_lon": 2.3243294607791096,
      "route_id": "IDFM:C01374",
      "parent_station": "IDFM:71139"
    },
    {
      "stop_id": "IDFM:22144",
      "stop_name": "Mouton-Duvernet",
      "stop_lat": 48.831382009093616,
      "stop_lon": 2.32979034782274,
      "route_id": "IDFM:C01374",
      "parent_station": "IDFM:73653"
    },
    {
      "stop_id": "IDFM:22145",
      "stop_name": "Odéon",
      "stop_lat": 48.85210334038093,
      "stop_lon": 2.339486020317896,
      "route_id": "IDFM:C01374",
      "parent_station": "IDFM:73618"
    },
    {
      "stop_id": "IDFM:22146",
      "stop_name": "Les Halles",
      "stop_lat": 48.86252665962869,
      "stop_lon": 2.34600573656331,
      "route_id": "IDFM:C01374",
      "parent_station": "IDFM:73794"
    },
    {
      "stop_id": "IDFM:22147",
      "stop_name": "Etienne Marcel",
      "stop_lat": 48.86370301202431,
      "stop_lon": 2.3489761968791085,
      "route_id": "IDFM:C01374",
      "parent_station": "IDFM:479068"
    },
    {
      "stop_id": "IDFM:22148",
      "stop_name": "Gare de l'Est",
      "stop_lat": 48.87627821831841,
      "stop_lon": 2.3577495818204395,
      "route_id": "IDFM:C01374",
      "parent_station": "IDFM:71359"
    },
    {
      "stop_id": "IDFM:22149",
      "stop_name": "Gare du Nord",
      "stop_lat": 48.879510553130615,
      "stop_lon": 2.356768884572096,
      "route_id": "IDFM:C01374",
      "parent_station": "IDFM:71410"
    },
    {
      "stop_id": "IDFM:22150",
      "stop_name": "Cité",
      "stop_lat": 48.85493384910671,
      "stop_lon": 2.3472322349319112,
      "route_id": "IDFM:C01374",
      "parent_station": "IDFM:71223"
    },
    {
      "stop_id": "IDFM:22151",
      "stop_name": "Denfert-Rochereau",
      "stop_lat": 48.83392232305997,
      "stop_lon": 2.3321281604376116,
      "route_id": "IDFM:C01374",
      "parent_station": "IDFM:71056"
    },
    {
      "stop_id": "IDFM:22152",
      "stop_name": "Château Rouge",
      "stop_lat": 48.887241930648955,
      "stop_lon": 2.3495819680256593,
      "route_id": "IDFM:C01374",
      "parent_station": "IDFM:71469"
    },
    {
      "stop_id": "IDFM:22153",
      "stop_name": "Château d'Eau",
      "stop_lat": 48.87244691759551,
      "stop_lon": 2.3560517414015862,
      "route_id": "IDFM:C01374",
      "parent_station": "IDFM:71333"
    },
    {
      "stop_id": "IDFM:22154",
      "stop_name": "Alésia",
      "stop_lat": 48.82820106421924,
      "stop_lon": 2.3270932349484528,
      "route_id": "IDFM:C01374",
      "parent_station": "IDFM:71030"
    },
    {
      "stop_id": "IDFM:22155",
      "stop_name": "Raspail",
      "stop_lat": 48.83908487281128,
      "stop_lon": 2.330549660589195,
      "route_id": "IDFM:C01376",
      "parent_station": "IDFM:71088"
    },
    {
      "stop_id": "IDFM:22156",
      "stop_name": "Montparnasse Bienvenue",
      "stop_lat": 48.84205447194666,
      "stop_lon": 2.321273396249205,
      "route_id": "IDFM:C01376",
      "parent_station": "IDFM:71139"
    },
    {
      "stop_id": "IDFM:22157",
      "stop_name": "Montparnasse Bienvenue",
      "stop_lat": 48.84231364506487,
      "stop_lon": 2.320983883036087,
      "route_id": "IDFM:C01383",
      "parent_station": "IDFM:71139"
    },
    {
      "stop_id": "IDFM:22158",
      "stop_name": "Denfert-Rochereau",
      "stop_lat": 48.83431320632965,
      "stop_lon": 2.3328724454976864,
      "route_id": "IDFM:C01376",
      "parent_station": "IDFM:71056"
    },
    {
      "stop_id": "IDFM:22159",
      "stop_name": "Strasbourg - Saint-Denis",
      "stop_lat": 48.86938572399119,
      "stop_lon": 2.353744768129407,
      "route_id": "IDFM:C01378",
      "parent_station": "IDFM:73633"
    },
    {
      "stop_id": "IDFM:22160",
      "stop_name": "Saint-Jacques",
      "stop_lat": 48.832916006219165,
      "stop_lon": 2.337154370925007,
      "route_id": "IDFM:C01376",
      "parent_station": "IDFM:71041"
    },
    {
      "stop_id": "IDFM:22161",
      "stop_name": "Quai de la Gare",
      "stop_lat": 48.83700262953923,
      "stop_lon": 2.372825013717543,
      "route_id": "IDFM:C01376",
      "parent_station": "IDFM:71597"
    },
    {
      "stop_id": "IDFM:22162",
      "stop_name": "La Motte-Picquet - Grenelle",
      "stop_lat": 48.848697697821954,
      "stop_lon": 2.298906224573169,
      "route_id": "IDFM:C01376",
      "parent_station": "IDFM:71199"
    },
    {
      "stop_id": "IDFM:22163",
      "stop_name": "Sèvres-Lecourbe",
      "stop_lat": 48.84558437021755,
      "stop_lon": 2.3094677673863235,
      "route_id": "IDFM:C01376",
      "parent_station": "IDFM:71144"
    },
    {
      "stop_id": "IDFM:22164",
      "stop_name": "Trocadéro",
      "stop_lat": 48.86346147371448,
      "stop_lon": 2.287625377853519,
      "route_id": "IDFM:C01376",
      "parent_station": "IDFM:71285"
    },
    {
      "stop_id": "IDFM:22165",
      "stop_name": "Passy",
      "stop_lat": 48.85751508962033,
      "stop_lon": 2.285839418881462,
      "route_id": "IDFM:C01376",
      "parent_station": "IDFM:71237"
    },
    {
      "stop_id": "IDFM:22166",
      "stop_name": "Pasteur",
      "stop_lat": 48.842482718285865,
      "stop_lon": 2.312792651441268,
      "route_id": "IDFM:C01376",
      "parent_station": "IDFM:71125"
    },
    {
      "stop_id": "IDFM:22167",
      "stop_name": "Picpus",
      "stop_lat": 48.84501767720269,
      "stop_lon": 2.401248269453829,
      "route_id": "IDFM:C01376",
      "parent_station": "IDFM:71639"
    },
    {
      "stop_id": "IDFM:22168",
      "stop_name": "Place d'Italie",
      "stop_lat": 48.830914982874944,
      "stop_lon": 2.356101612721528,
      "route_id": "IDFM:C01376",
      "parent_station": "IDFM:71033"
    },
    {
      "stop_id": "IDFM:22169",
      "stop_name": "Nationale",
      "stop_lat": 48.83318160406702,
      "stop_lon": 2.362857958087621,
      "route_id": "IDFM:C01376",
      "parent_station": "IDFM:71043"
    },
    {
      "stop_id": "IDFM:22170",
      "stop_name": "Kléber",
      "stop_lat": 48.87148941293503,
      "stop_lon": 2.293146137248626,
      "route_id": "IDFM:C01376",
      "parent_station": "IDFM:73656"
    },
    {
      "stop_id": "IDFM:22171",
      "stop_name": "Dupleix",
      "stop_lat": 48.8504116258067,
      "stop_lon": 2.293663726731039,
      "route_id": "IDFM:C01376",
      "parent_station": "IDFM:71197"
    },
    {
      "stop_id": "IDFM:22172",
      "stop_name": "Edgar Quinet",
      "stop_lat": 48.84098044632817,
      "stop_lon": 2.3253749636089105,
      "route_id": "IDFM:C01376",
      "parent_station": "IDFM:71108"
    },
    {
      "stop_id": "IDFM:22173",
      "stop_name": "Glacière",
      "stop_lat": 48.831170235245835,
      "stop_lon": 2.3434974927179884,
      "route_id": "IDFM:C01376",
      "parent_station": "IDFM:71026"
    },
    {
      "stop_id": "IDFM:22174",
      "stop_name": "Chevaleret",
      "stop_lat": 48.83496308210916,
      "stop_lon": 2.368081282972743,
      "route_id": "IDFM:C01376",
      "parent_station": "IDFM:73651"
    },
    {
      "stop_id": "IDFM:22175",
      "stop_name": "Corvisart",
      "stop_lat": 48.82986001331238,
      "stop_lon": 2.350611225926166,
      "route_id": "IDFM:C01376",
      "parent_station": "IDFM:71013"
    },
    {
      "stop_id": "IDFM:22176",
      "stop_name": "Cambronne",
      "stop_lat": 48.84754311219352,
      "stop_lon": 2.3029417283376117,
      "route_id": "IDFM:C01376",
      "parent_station": "IDFM:71167"
    },
    {
      "stop_id": "IDFM:22177",
      "stop_name": "Bel-Air",
      "stop_lat": 48.84142733223358,
      "stop_lon": 2.400867131995259,
      "route_id": "IDFM:C01376",
      "parent_station": "IDFM:73650"
    },
    {
      "stop_id": "IDFM:22178",
      "stop_name": "Bercy",
      "stop_lat": 48.840176028121896,
      "stop_lon": 2.379463070185257,
      "route_id": "IDFM:C01376",
      "parent_station": "IDFM:71607"
    },
    {
      "stop_id": "IDFM:22179",
      "stop_name": "Bir-Hakeim",
      "stop_lat": 48.85388427726308,
      "stop_lon": 2.2892963570634604,
      "route_id": "IDFM:C01376",
      "parent_station": "IDFM:473829"
    },
    {
      "stop_id": "IDFM:22180",
      "stop_name": "Boissière",
      "stop_lat": 48.8668483434173,
      "stop_lon": 2.2900328376074373,
      "route_id": "IDFM:C01376",
      "parent_station": "IDFM:71301"
    },
    {
      "stop_id": "IDFM:22181",
      "stop_name": "Daumesnil",
      "stop_lat": 48.839434008053175,
      "stop_lon": 2.396148628489371,
      "route_id": "IDFM:C01376",
      "parent_station": "IDFM:71614"
    },
    {
      "stop_id": "IDFM:22182",
      "stop_name": "Dugommier",
      "stop_lat": 48.838951094045356,
      "stop_lon": 2.3896007705991944,
      "route_id": "IDFM:C01376",
      "parent_station": "IDFM:71606"
    },
    {
      "stop_id": "IDFM:22183",
      "stop_name": "La Motte-Picquet - Grenelle",
      "stop_lat": 48.84950618174656,
      "stop_lon": 2.298745444388579,
      "route_id": "IDFM:C01378",
      "parent_station": "IDFM:71199"
    },
    {
      "stop_id": "IDFM:22184",
      "stop_name": "Daumesnil",
      "stop_lat": 48.83967393140864,
      "stop_lon": 2.395573606140371,
      "route_id": "IDFM:C01378",
      "parent_station": "IDFM:71614"
    },
    {
      "stop_id": "IDFM:22185",
      "stop_name": "Invalides",
      "stop_lat": 48.86053445554123,
      "stop_lon": 2.3146399951225347,
      "route_id": "IDFM:C01383",
      "parent_station": "IDFM:71274"
    },
    {
      "stop_id": "IDFM:22186",
      "stop_name": "Balard",
      "stop_lat": 48.836650792286115,
      "stop_lon": 2.2785093588069993,
      "route_id": "IDFM:C01378",
      "parent_station": "IDFM:71073"
    },
    {
      "stop_id": "IDFM:22187",
      "stop_name": "Lourmel",
      "stop_lat": 48.83866086365992,
      "stop_lon": 2.2822419598550767,
      "route_id": "IDFM:C01378",
      "parent_station": "IDFM:71086"
    },
    {
      "stop_id": "IDFM:22188",
      "stop_name": "Boucicaut",
      "stop_lat": 48.841024160993214,
      "stop_lon": 2.2879184311245595,
      "route_id": "IDFM:C01378",
      "parent_station": "IDFM:412992"
    },
    {
      "stop_id": "IDFM:22189",
      "stop_name": "Félix Faure",
      "stop_lat": 48.84268433479664,
      "stop_lon": 2.2918472203679703,
      "route_id": "IDFM:C01378",
      "parent_station": "IDFM:71137"
    },
    {
      "stop_id": "IDFM:22190",
      "stop_name": "Commerce",
      "stop_lat": 48.84463784771031,
      "stop_lon": 2.293687475167137,
      "route_id": "IDFM:C01378",
      "parent_station": "IDFM:71132"
    },
    {
      "stop_id": "IDFM:22191",
      "stop_name": "École Militaire",
      "stop_lat": 48.85491966058707,
      "stop_lon": 2.3063456838200764,
      "route_id": "IDFM:C01378",
      "parent_station": "IDFM:71224"
    },
    {
      "stop_id": "IDFM:22192",
      "stop_name": "La Tour-Maubourg",
      "stop_lat": 48.85766922956403,
      "stop_lon": 2.3105887898739876,
      "route_id": "IDFM:C01378",
      "parent_station": "IDFM:71242"
    },
    {
      "stop_id": "IDFM:22193",
      "stop_name": "Invalides",
      "stop_lat": 48.86109201138112,
      "stop_lon": 2.3146326604445164,
      "route_id": "IDFM:C01378",
      "parent_station": "IDFM:71274"
    },
    {
      "stop_id": "IDFM:22194",
      "stop_name": "Madeleine",
      "stop_lat": 48.86956561611772,
      "stop_lon": 2.3260272117729994,
      "route_id": "IDFM:C01378",
      "parent_station": "IDFM:71324"
    },
    {
      "stop_id": "IDFM:22195",
      "stop_name": "Opéra",
      "stop_lat": 48.87059812248669,
      "stop_lon": 2.332135072925294,
      "route_id": "IDFM:C01378",
      "parent_station": "IDFM:71337"
    },
    {
      "stop_id": "IDFM:22196",
      "stop_name": "Richelieu - Drouot",
      "stop_lat": 48.87173920910264,
      "stop_lon": 2.3384190255427955,
      "route_id": "IDFM:C01378",
      "parent_station": "IDFM:71330"
    },
    {
      "stop_id": "IDFM:22197",
      "stop_name": "Grands Boulevards",
      "stop_lat": 48.87146677844407,
      "stop_lon": 2.342839648636545,
      "route_id": "IDFM:C01378",
      "parent_station": "IDFM:71326"
    },
    {
      "stop_id": "IDFM:22198",
      "stop_name": "Bonne Nouvelle",
      "stop_lat": 48.8706347683979,
      "stop_lon": 2.3485760027859746,
      "route_id": "IDFM:C01378",
      "parent_station": "IDFM:71320"
    },
    {
      "stop_id": "IDFM:22199",
      "stop_name": "République",
      "stop_lat": 48.86748513277203,
      "stop_lon": 2.3632563242479026,
      "route_id": "IDFM:C01378",
      "parent_station": "IDFM:71311"
    },
    {
      "stop_id": "IDFM:22200",
      "stop_name": "Filles du Calvaire",
      "stop_lat": 48.86308830188695,
      "stop_lon": 2.366826859795412,
      "route_id": "IDFM:C01378",
      "parent_station": "IDFM:71277"
    },
    {
      "stop_id": "IDFM:22201",
      "stop_name": "Saint-Sébastien - Froissart",
      "stop_lat": 48.86098670797991,
      "stop_lon": 2.367370357789606,
      "route_id": "IDFM:C01378",
      "parent_station": "IDFM:71777"
    },
    {
      "stop_id": "IDFM:22202",
      "stop_name": "Chemin Vert",
      "stop_lat": 48.85710602289208,
      "stop_lon": 2.3682216127650335,
      "route_id": "IDFM:C01378",
      "parent_station": "IDFM:73622"
    },
    {
      "stop_id": "IDFM:22203",
      "stop_name": "Ledru-Rollin",
      "stop_lat": 48.85133776679838,
      "stop_lon": 2.3761412233185926,
      "route_id": "IDFM:C01378",
      "parent_station": "IDFM:71693"
    },
    {
      "stop_id": "IDFM:22204",
      "stop_name": "Faidherbe - Chaligny",
      "stop_lat": 48.850200705509266,
      "stop_lon": 2.384072471688875,
      "route_id": "IDFM:C01378",
      "parent_station": "IDFM:74001"
    },
    {
      "stop_id": "IDFM:22205",
      "stop_name": "Montgallet",
      "stop_lat": 48.8440641552825,
      "stop_lon": 2.39052195642492,
      "route_id": "IDFM:C01378",
      "parent_station": "IDFM:71631"
    },
    {
      "stop_id": "IDFM:22206",
      "stop_name": "Michel Bizot",
      "stop_lat": 48.837000553950986,
      "stop_lon": 2.40228042706469,
      "route_id": "IDFM:C01378",
      "parent_station": "IDFM:71595"
    },
    {
      "stop_id": "IDFM:22207",
      "stop_name": "Porte Dorée",
      "stop_lat": 48.8350662204656,
      "stop_lon": 2.405749381400099,
      "route_id": "IDFM:C01378",
      "parent_station": "IDFM:71591"
    },
    {
      "stop_id": "IDFM:22208",
      "stop_name": "Porte de Charenton",
      "stop_lat": 48.83344922287947,
      "stop_lon": 2.402511872850073,
      "route_id": "IDFM:C01378",
      "parent_station": "IDFM:71579"
    },
    {
      "stop_id": "IDFM:22209",
      "stop_name": "Liberté",
      "stop_lat": 48.826148180607525,
      "stop_lon": 2.4064912314699263,
      "route_id": "IDFM:C01378",
      "parent_station": "IDFM:71558"
    },
    {
      "stop_id": "IDFM:22210",
      "stop_name": "Charenton - Écoles",
      "stop_lat": 48.82125590204953,
      "stop_lon": 2.413847237068526,
      "route_id": "IDFM:C01378",
      "parent_station": "IDFM:70648"
    },
    {
      "stop_id": "IDFM:22211",
      "stop_name": "Créteil - L'Échat",
      "stop_lat": 48.79661083011156,
      "stop_lon": 2.4493695956133714,
      "route_id": "IDFM:C01378",
      "parent_station": "IDFM:70269"
    },
    {
      "stop_id": "IDFM:22212",
      "stop_name": "Créteil - Université",
      "stop_lat": 48.789915686006935,
      "stop_lon": 2.450529196348293,
      "route_id": "IDFM:C01378",
      "parent_station": "IDFM:70172"
    },
    {
      "stop_id": "IDFM:22213",
      "stop_name": "Créteil - Préfecture",
      "stop_lat": 48.77975652677895,
      "stop_lon": 2.4593051692912615,
      "route_id": "IDFM:C01378",
      "parent_station": "IDFM:70021"
    },
    {
      "stop_id": "IDFM:22214",
      "stop_name": "Ecole Vétérinaire de Maisons-Alfort",
      "stop_lat": 48.814758684006726,
      "stop_lon": 2.422322751702586,
      "route_id": "IDFM:C01378",
      "parent_station": "IDFM:70522"
    },
    {
      "stop_id": "IDFM:22215",
      "stop_name": "Maisons-Alfort - Stade",
      "stop_lat": 48.80891847848263,
      "stop_lon": 2.434819533389365,
      "route_id": "IDFM:C01378",
      "parent_station": "IDFM:70426"
    },
    {
      "stop_id": "IDFM:22216",
      "stop_name": "Maisons-Alfort - Les Juilliottes",
      "stop_lat": 48.80310585036659,
      "stop_lon": 2.4457883063759605,
      "route_id": "IDFM:C01378",
      "parent_station": "IDFM:70358"
    },
    {
      "stop_id": "IDFM:22217",
      "stop_name": "Saint-François-Xavier",
      "stop_lat": 48.8512787565696,
      "stop_lon": 2.314407403528732,
      "route_id": "IDFM:C01383",
      "parent_station": "IDFM:71204"
    },
    {
      "stop_id": "IDFM:22218",
      "stop_name": "Saint-Lazare",
      "stop_lat": 48.87538131600797,
      "stop_lon": 2.325488390672613,
      "route_id": "IDFM:C01383",
      "parent_station": "IDFM:71370"
    },
    {
      "stop_id": "IDFM:22219",
      "stop_name": "Porte de Clichy",
      "stop_lat": 48.89464071673921,
      "stop_lon": 2.3136590957118313,
      "route_id": "IDFM:C01383",
      "parent_station": "IDFM:71545"
    },
    {
      "stop_id": "IDFM:22220",
      "stop_name": "Porte de Saint-Ouen",
      "stop_lat": 48.89749783732745,
      "stop_lon": 2.3290483407446505,
      "route_id": "IDFM:C01383",
      "parent_station": "IDFM:72078"
    },
    {
      "stop_id": "IDFM:22221",
      "stop_name": "Porte de Vanves",
      "stop_lat": 48.82766229777493,
      "stop_lon": 2.305223578739507,
      "route_id": "IDFM:C01383",
      "parent_station": "IDFM:71006"
    },
    {
      "stop_id": "IDFM:22222",
      "stop_name": "Pernety",
      "stop_lat": 48.834078679774976,
      "stop_lon": 2.318393706614701,
      "route_id": "IDFM:C01383",
      "parent_station": "IDFM:412687"
    },
    {
      "stop_id": "IDFM:22223",
      "stop_name": "Plaisance",
      "stop_lat": 48.83174121370108,
      "stop_lon": 2.313833364032832,
      "route_id": "IDFM:C01383",
      "parent_station": "IDFM:71039"
    },
    {
      "stop_id": "IDFM:22224",
      "stop_name": "Miromesnil",
      "stop_lat": 48.87344791579522,
      "stop_lon": 2.3160106931210245,
      "route_id": "IDFM:C01383",
      "parent_station": "IDFM:71346"
    },
    {
      "stop_id": "IDFM:22225",
      "stop_name": "Liège",
      "stop_lat": 48.87953493737576,
      "stop_lon": 2.3268526712397555,
      "route_id": "IDFM:C01383",
      "parent_station": "IDFM:71382"
    },
    {
      "stop_id": "IDFM:22226",
      "stop_name": "Varenne",
      "stop_lat": 48.85662498274656,
      "stop_lon": 2.315113930509657,
      "route_id": "IDFM:C01383",
      "parent_station": "IDFM:71232"
    },
    {
      "stop_id": "IDFM:22227",
      "stop_name": "La Fourche",
      "stop_lat": 48.887424510518066,
      "stop_lon": 2.3256869607667356,
      "route_id": "IDFM:C01383",
      "parent_station": "IDFM:71474"
    },
    {
      "stop_id": "IDFM:22228",
      "stop_name": "Guy Môquet",
      "stop_lat": 48.8930014419616,
      "stop_lon": 2.327483258626126,
      "route_id": "IDFM:C01383",
      "parent_station": "IDFM:71528"
    },
    {
      "stop_id": "IDFM:22229",
      "stop_name": "Duroc",
      "stop_lat": 48.847009893611975,
      "stop_lon": 2.3165212194565217,
      "route_id": "IDFM:C01383",
      "parent_station": "IDFM:71159"
    },
    {
      "stop_id": "IDFM:22230",
      "stop_name": "Gaîté",
      "stop_lat": 48.83854469308166,
      "stop_lon": 2.322463569405974,
      "route_id": "IDFM:C01383",
      "parent_station": "IDFM:73675"
    },
    {
      "stop_id": "IDFM:22231",
      "stop_name": "Brochant",
      "stop_lat": 48.89062201554889,
      "stop_lon": 2.3201902468999456,
      "route_id": "IDFM:C01383",
      "parent_station": "IDFM:73661"
    },
    {
      "stop_id": "IDFM:22232",
      "stop_name": "Les Agnettes",
      "stop_lat": 48.92308777796361,
      "stop_lon": 2.286263202479002,
      "route_id": "IDFM:C01383",
      "parent_station": "IDFM:72240"
    },
    {
      "stop_id": "IDFM:22233",
      "stop_name": "Asnières - Gennevilliers Les Courtilles",
      "stop_lat": 48.93060364140038,
      "stop_lon": 2.284372100658843,
      "route_id": "IDFM:C01383",
      "parent_station": "IDFM:72286"
    },
    {
      "stop_id": "IDFM:22234",
      "stop_name": "Gabriel Péri",
      "stop_lat": 48.91639290208823,
      "stop_lon": 2.2946921563609406,
      "route_id": "IDFM:C01383",
      "parent_station": "IDFM:72203"
    },
    {
      "stop_id": "IDFM:22235",
      "stop_name": "Malakoff - Plateau de Vanves",
      "stop_lat": 48.82220756804045,
      "stop_lon": 2.298295381702497,
      "route_id": "IDFM:C01383",
      "parent_station": "IDFM:73766"
    },
    {
      "stop_id": "IDFM:22236",
      "stop_name": "Malakoff - Rue Etienne Dolet",
      "stop_lat": 48.815265523780766,
      "stop_lon": 2.296972463702674,
      "route_id": "IDFM:C01383",
      "parent_station": "IDFM:70562"
    },
    {
      "stop_id": "IDFM:22237",
      "stop_name": "Châtillon-Montrouge",
      "stop_lat": 48.81075140670139,
      "stop_lon": 2.301717705004608,
      "route_id": "IDFM:C01383",
      "parent_station": "IDFM:461505"
    },
    {
      "stop_id": "IDFM:22238",
      "stop_name": "Mairie de Clichy",
      "stop_lat": 48.90349897462669,
      "stop_lon": 2.3058484063578857,
      "route_id": "IDFM:C01383",
      "parent_station": "IDFM:72118"
    },
    {
      "stop_id": "IDFM:22239",
      "stop_name": "Carrefour Pleyel",
      "stop_lat": 48.91980854982986,
      "stop_lon": 2.343443653352174,
      "route_id": "IDFM:C01383",
      "parent_station": "IDFM:72217"
    },
    {
      "stop_id": "IDFM:22240",
      "stop_name": "Basilique de Saint-Denis",
      "stop_lat": 48.93678306532419,
      "stop_lon": 2.3592958408126816,
      "route_id": "IDFM:C01383",
      "parent_station": "IDFM:72326"
    },
    {
      "stop_id": "IDFM:22241",
      "stop_name": "Saint-Denis - Porte de Paris",
      "stop_lat": 48.929922750445755,
      "stop_lon": 2.3561729251015997,
      "route_id": "IDFM:C01383",
      "parent_station": "IDFM:72285"
    },
    {
      "stop_id": "IDFM:22242",
      "stop_name": "Saint-Denis - Université",
      "stop_lat": 48.945911458883856,
      "stop_lon": 2.3644942905103172,
      "route_id": "IDFM:C01383",
      "parent_station": "IDFM:72358"
    },
    {
      "stop_id": "IDFM:22243",
      "stop_name": "Mairie de Saint-Ouen",
      "stop_lat": 48.91202122382531,
      "stop_lon": 2.3337865427286206,
      "route_id": "IDFM:C01383",
      "parent_station": "IDFM:72168"
    },
    {
      "stop_id": "IDFM:22244",
      "stop_name": "Garibaldi",
      "stop_lat": 48.906372391923206,
      "stop_lon": 2.331962553647662,
      "route_id": "IDFM:C01383",
      "parent_station": "IDFM:72128"
    },
    {
      "stop_id": "IDFM:22364",
      "stop_name": "Châtelet",
      "stop_lat": 48.856953460785334,
      "stop_lon": 2.3481609912345776,
      "route_id": "IDFM:C01377",
      "parent_station": "IDFM:71264"
    },
    {
      "stop_id": "IDFM:22365",
      "stop_name": "Place d'Italie",
      "stop_lat": 48.83154024475565,
      "stop_lon": 2.355303769754901,
      "route_id": "IDFM:C01377",
      "parent_station": "IDFM:71033"
    },
    {
      "stop_id": "IDFM:22366",
      "stop_name": "Place Monge",
      "stop_lat": 48.842666385642886,
      "stop_lon": 2.3521548685787708,
      "route_id": "IDFM:C01377",
      "parent_station": "IDFM:71133"
    },
    {
      "stop_id": "IDFM:22367",
      "stop_name": "Château Landon",
      "stop_lat": 48.87844145573239,
      "stop_lon": 2.3620179355106075,
      "route_id": "IDFM:C01377",
      "parent_station": "IDFM:474149"
    },
    {
      "stop_id": "IDFM:22368",
      "stop_name": "Stalingrad",
      "stop_lat": 48.88431508830977,
      "stop_lon": 2.368996070723285,
      "route_id": "IDFM:C01377",
      "parent_station": "IDFM:71961"
    },
    {
      "stop_id": "IDFM:22369",
      "stop_name": "Sully - Morland",
      "stop_lat": 48.85120791254347,
      "stop_lon": 2.3617517381263218,
      "route_id": "IDFM:C01377",
      "parent_station": "IDFM:71201"
    },
    {
      "stop_id": "IDFM:22370",
      "stop_name": "Tolbiac",
      "stop_lat": 48.82613686175372,
      "stop_lon": 2.357318439213192,
      "route_id": "IDFM:C01377",
      "parent_station": "IDFM:71001"
    },
    {
      "stop_id": "IDFM:22371",
      "stop_name": "Riquet",
      "stop_lat": 48.88810829453359,
      "stop_lon": 2.3737641527012556,
      "route_id": "IDFM:C01377",
      "parent_station": "IDFM:71977"
    },
    {
      "stop_id": "IDFM:22372",
      "stop_name": "Porte d'Ivry",
      "stop_lat": 48.821489035562834,
      "stop_lon": 2.3695112543194927,
      "route_id": "IDFM:C01377",
      "parent_station": "IDFM:70636"
    },
    {
      "stop_id": "IDFM:22373",
      "stop_name": "Porte de Choisy",
      "stop_lat": 48.820132089232395,
      "stop_lon": 2.3646245490007405,
      "route_id": "IDFM:C01377",
      "parent_station": "IDFM:70604"
    },
    {
      "stop_id": "IDFM:22374",
      "stop_name": "Porte de la Villette",
      "stop_lat": 48.89780269235572,
      "stop_lon": 2.385869033143345,
      "route_id": "IDFM:C01377",
      "parent_station": "IDFM:72430"
    },
    {
      "stop_id": "IDFM:22375",
      "stop_name": "Pyramides",
      "stop_lat": 48.865880289914124,
      "stop_lon": 2.3344175359665553,
      "route_id": "IDFM:C01377",
      "parent_station": "IDFM:73788"
    },
    {
      "stop_id": "IDFM:22376",
      "stop_name": "Palais Royal - Musée du Louvre",
      "stop_lat": 48.862683997769665,
      "stop_lon": 2.337007354765684,
      "route_id": "IDFM:C01377",
      "parent_station": "IDFM:71297"
    },
    {
      "stop_id": "IDFM:22377",
      "stop_name": "Poissonnière",
      "stop_lat": 48.87716484925024,
      "stop_lon": 2.3487397513900734,
      "route_id": "IDFM:C01377",
      "parent_station": "IDFM:71363"
    },
    {
      "stop_id": "IDFM:22378",
      "stop_name": "Pont Marie (Cité des Arts)",
      "stop_lat": 48.85341474936241,
      "stop_lon": 2.357349968447059,
      "route_id": "IDFM:C01377",
      "parent_station": "IDFM:71217"
    },
    {
      "stop_id": "IDFM:22379",
      "stop_name": "Pont Neuf",
      "stop_lat": 48.858456031111984,
      "stop_lon": 2.3417089232034765,
      "route_id": "IDFM:C01377",
      "parent_station": "IDFM:71253"
    },
    {
      "stop_id": "IDFM:22380",
      "stop_name": "Porte d'Italie",
      "stop_lat": 48.81903428608761,
      "stop_lon": 2.359462523882543,
      "route_id": "IDFM:C01377",
      "parent_station": "IDFM:70596"
    },
    {
      "stop_id": "IDFM:22381",
      "stop_name": "Opéra",
      "stop_lat": 48.87030303390994,
      "stop_lon": 2.3324387808144875,
      "route_id": "IDFM:C01377",
      "parent_station": "IDFM:71337"
    },
    {
      "stop_id": "IDFM:22382",
      "stop_name": "Le Peletier",
      "stop_lat": 48.874959406040965,
      "stop_lon": 2.3401505597063736,
      "route_id": "IDFM:C01377",
      "parent_station": "IDFM:478885"
    },
    {
      "stop_id": "IDFM:22383",
      "stop_name": "Les Gobelins",
      "stop_lat": 48.835841622344475,
      "stop_lon": 2.3524168018982756,
      "route_id": "IDFM:C01377",
      "parent_station": "IDFM:71076"
    },
    {
      "stop_id": "IDFM:22384",
      "stop_name": "Louis Blanc",
      "stop_lat": 48.88124182075271,
      "stop_lon": 2.3643562491890786,
      "route_id": "IDFM:C01377",
      "parent_station": "IDFM:71407"
    },
    {
      "stop_id": "IDFM:22385",
      "stop_name": "Maison Blanche",
      "stop_lat": 48.82216816831483,
      "stop_lon": 2.3585387043161337,
      "route_id": "IDFM:C01377",
      "parent_station": "IDFM:70645"
    },
    {
      "stop_id": "IDFM:22386",
      "stop_name": "Jussieu",
      "stop_lat": 48.84596333903808,
      "stop_lon": 2.354798309820857,
      "route_id": "IDFM:C01377",
      "parent_station": "IDFM:71148"
    },
    {
      "stop_id": "IDFM:22387",
      "stop_name": "Gare de l'Est",
      "stop_lat": 48.876361054333444,
      "stop_lon": 2.3581030566976637,
      "route_id": "IDFM:C01377",
      "parent_station": "IDFM:71359"
    },
    {
      "stop_id": "IDFM:22388",
      "stop_name": "Chaussée d'Antin - La Fayette",
      "stop_lat": 48.87313420577469,
      "stop_lon": 2.3337385944087012,
      "route_id": "IDFM:C01377",
      "parent_station": "IDFM:73689"
    },
    {
      "stop_id": "IDFM:22389",
      "stop_name": "Corentin Cariou",
      "stop_lat": 48.89467266005628,
      "stop_lon": 2.382291557164633,
      "route_id": "IDFM:C01377",
      "parent_station": "IDFM:72031"
    },
    {
      "stop_id": "IDFM:22390",
      "stop_name": "Cadet",
      "stop_lat": 48.875963285075564,
      "stop_lon": 2.344446309702274,
      "route_id": "IDFM:C01377",
      "parent_station": "IDFM:71351"
    },
    {
      "stop_id": "IDFM:22391",
      "stop_name": "Censier - Daubenton",
      "stop_lat": 48.84022624851393,
      "stop_lon": 2.351626572605499,
      "route_id": "IDFM:C01377",
      "parent_station": "IDFM:71100"
    },
    {
      "stop_id": "IDFM:22392",
      "stop_name": "Crimée",
      "stop_lat": 48.8908857589288,
      "stop_lon": 2.37693573698238,
      "route_id": "IDFM:C01377",
      "parent_station": "IDFM:72013"
    },
    {
      "stop_id": "IDFM:22393",
      "stop_name": "Fort d'Aubervilliers",
      "stop_lat": 48.91475665506255,
      "stop_lon": 2.404075377271855,
      "route_id": "IDFM:C01377",
      "parent_station": "IDFM:73695"
    },
    {
      "stop_id": "IDFM:22394",
      "stop_name": "Aubervilliers-Pantin Quatre Chemins",
      "stop_lat": 48.90379699038963,
      "stop_lon": 2.3921143824978492,
      "route_id": "IDFM:C01377",
      "parent_station": "IDFM:72460"
    },
    {
      "stop_id": "IDFM:22395",
      "stop_name": "La Courneuve - 8 Mai 1945",
      "stop_lat": 48.92024579662936,
      "stop_lon": 2.4102214036405085,
      "route_id": "IDFM:C01377",
      "parent_station": "IDFM:73696"
    },
    {
      "stop_id": "IDFM:22396",
      "stop_name": "Mairie d'Ivry",
      "stop_lat": 48.811210093393306,
      "stop_lon": 2.383498053635828,
      "route_id": "IDFM:C01377",
      "parent_station": "IDFM:70488"
    },
    {
      "stop_id": "IDFM:22397",
      "stop_name": "Pierre et Marie Curie",
      "stop_lat": 48.815836500997094,
      "stop_lon": 2.377246886036494,
      "route_id": "IDFM:C01377",
      "parent_station": "IDFM:70537"
    },
    {
      "stop_id": "IDFM:22398",
      "stop_name": "Le Kremlin-Bicêtre",
      "stop_lat": 48.81025257278989,
      "stop_lon": 2.362130413802561,
      "route_id": "IDFM:C01377",
      "parent_station": "IDFM:70452"
    },
    {
      "stop_id": "IDFM:22399",
      "stop_name": "Villejuif Léo Lagrange",
      "stop_lat": 48.80435318028833,
      "stop_lon": 2.3639317476477353,
      "route_id": "IDFM:C01377",
      "parent_station": "IDFM:70375"
    },
    {
      "stop_id": "IDFM:22400",
      "stop_name": "Villejuif - Louis Aragon",
      "stop_lat": 48.78753717099888,
      "stop_lon": 2.36783901176962,
      "route_id": "IDFM:C01377",
      "parent_station": "IDFM:70143"
    },
    {
      "stop_id": "IDFM:22401",
      "stop_name": "Villejuif Paul Vaillant-Couturier",
      "stop_lat": 48.79631793416014,
      "stop_lon": 2.3683316015776423,
      "route_id": "IDFM:C01377",
      "parent_station": "IDFM:70248"
    },
    {
      "stop_id": "IDFM:22442",
      "stop_name": "Rue des Boulets",
      "stop_lat": 48.85221407333194,
      "stop_lon": 2.3891047050322425,
      "route_id": "IDFM:C01379",
      "parent_station": "IDFM:71694"
    },
    {
      "stop_id": "IDFM:24679",
      "stop_name": "Front Populaire",
      "stop_lat": 48.906763048164294,
      "stop_lon": 2.365777177193171,
      "route_id": "IDFM:C01382",
      "parent_station": "IDFM:74041"
    },
    {
      "stop_id": "IDFM:24680",
      "stop_name": "Jaurès",
      "stop_lat": 48.882344230208226,
      "stop_lon": 2.370451734004561,
      "route_id": "IDFM:C01387",
      "parent_station": "IDFM:71940"
    },
    {
      "stop_id": "IDFM:24681",
      "stop_name": "Louis Blanc",
      "stop_lat": 48.88120621182599,
      "stop_lon": 2.364424862493678,
      "route_id": "IDFM:C01387",
      "parent_station": "IDFM:71407"
    },
    {
      "stop_id": "IDFM:24682",
      "stop_name": "Place des Fêtes",
      "stop_lat": 48.87693859004261,
      "stop_lon": 2.392959616507311,
      "route_id": "IDFM:C01387",
      "parent_station": "IDFM:71885"
    },
    {
      "stop_id": "IDFM:24683",
      "stop_name": "Buttes Chaumont",
      "stop_lat": 48.87849908839857,
      "stop_lon": 2.381569842088008,
      "route_id": "IDFM:C01387",
      "parent_station": "IDFM:71900"
    },
    {
      "stop_id": "IDFM:24684",
      "stop_name": "Pré-Saint-Gervais",
      "stop_lat": 48.8801595806643,
      "stop_lon": 2.398580770693528,
      "route_id": "IDFM:C01387",
      "parent_station": "IDFM:71911"
    },
    {
      "stop_id": "IDFM:24685",
      "stop_name": "Bolivar",
      "stop_lat": 48.88078966297506,
      "stop_lon": 2.374124871187542,
      "route_id": "IDFM:C01387",
      "parent_station": "IDFM:71920"
    },
    {
      "stop_id": "IDFM:24686",
      "stop_name": "Botzaris",
      "stop_lat": 48.87943610160117,
      "stop_lon": 2.388908111185046,
      "route_id": "IDFM:C01387",
      "parent_station": "IDFM:71906"
    },
    {
      "stop_id": "IDFM:24687",
      "stop_name": "Danube",
      "stop_lat": 48.88194921492064,
      "stop_lon": 2.393228471227492,
      "route_id": "IDFM:C01387",
      "parent_station": "IDFM:71930"
    },
    {
      "stop_id": "IDFM:25084",
      "stop_name": "Buzenval",
      "stop_lat": 48.85176243983227,
      "stop_lon": 2.401170769368413,
      "route_id": "IDFM:C01379",
      "parent_station": "IDFM:479928"
    },
    {
      "stop_id": "IDFM:26602",
      "stop_name": "Mairie de Montrouge",
      "stop_lat": 48.818471900073675,
      "stop_lon": 2.319523835754741,
      "route_id": "IDFM:C01374",
      "parent_station": "IDFM:70586"
    },
    {
      "stop_id": "IDFM:462914",
      "stop_name": "Marcel Sembat",
      "stop_lat": 48.83359298218974,
      "stop_lon": 2.243583048618053,
      "route_id": "IDFM:C01379",
      "parent_station": "IDFM:71054"
    },
    {
      "stop_id": "IDFM:462915",
      "stop_name": "Saint-Philippe du Roule",
      "stop_lat": 48.87215513107743,
      "stop_lon": 2.3101372056878247,
      "route_id": "IDFM:C01379",
      "parent_station": "IDFM:71334"
    },
    {
      "stop_id": "IDFM:462942",
      "stop_name": "Nation",
      "stop_lat": 48.848979537674516,
      "stop_lon": 2.395921369214201,
      "route_id": "IDFM:C01379",
      "parent_station": "IDFM:71673"
    },
    {
      "stop_id": "IDFM:462943",
      "stop_name": "Nation",
      "stop_lat": 48.84816963759798,
      "stop_lon": 2.395825965451431,
      "route_id": "IDFM:C01371",
      "parent_station": "IDFM:71673"
    },
    {
      "stop_id": "IDFM:462944",
      "stop_name": "Cluny - La Sorbonne",
      "stop_lat": 48.850793731720536,
      "stop_lon": 2.3450218824744566,
      "route_id": "IDFM:C01380",
      "parent_station": "IDFM:73619"
    },
    {
      "stop_id": "IDFM:462945",
      "stop_name": "Rambuteau",
      "stop_lat": 48.86119015695036,
      "stop_lon": 2.3532739485947713,
      "route_id": "IDFM:C01381",
      "parent_station": "IDFM:71273"
    },
    {
      "stop_id": "IDFM:462946",
      "stop_name": "République",
      "stop_lat": 48.86720306822776,
      "stop_lon": 2.3643332975454276,
      "route_id": "IDFM:C01373",
      "parent_station": "IDFM:71311"
    },
    {
      "stop_id": "IDFM:462947",
      "stop_name": "Pasteur",
      "stop_lat": 48.84282366881032,
      "stop_lon": 2.3126518981045816,
      "route_id": "IDFM:C01382",
      "parent_station": "IDFM:71125"
    },
    {
      "stop_id": "IDFM:462948",
      "stop_name": "Pasteur",
      "stop_lat": 48.842528387543226,
      "stop_lon": 2.3129146804739396,
      "route_id": "IDFM:C01376",
      "parent_station": "IDFM:71125"
    },
    {
      "stop_id": "IDFM:462949",
      "stop_name": "Convention",
      "stop_lat": 48.83713505380496,
      "stop_lon": 2.2963913864809173,
      "route_id": "IDFM:C01382",
      "parent_station": "IDFM:71075"
    },
    {
      "stop_id": "IDFM:462950",
      "stop_name": "Rue du Bac",
      "stop_lat": 48.85588467848543,
      "stop_lon": 2.3256998984524113,
      "route_id": "IDFM:C01382",
      "parent_station": "IDFM:71227"
    },
    {
      "stop_id": "IDFM:462951",
      "stop_name": "Porte de Saint-Ouen",
      "stop_lat": 48.89750667705023,
      "stop_lon": 2.3290209467099534,
      "route_id": "IDFM:C01383",
      "parent_station": "IDFM:72078"
    },
    {
      "stop_id": "IDFM:462952",
      "stop_name": "Guy Môquet",
      "stop_lat": 48.8930014419616,
      "stop_lon": 2.327483258626126,
      "route_id": "IDFM:C01383",
      "parent_station": "IDFM:71528"
    },
    {
      "stop_id": "IDFM:462953",
      "stop_name": "Gabriel Péri",
      "stop_lat": 48.916347418146714,
      "stop_lon": 2.29460408001733,
      "route_id": "IDFM:C01383",
      "parent_station": "IDFM:72203"
    },
    {
      "stop_id": "IDFM:462954",
      "stop_name": "Montparnasse Bienvenue",
      "stop_lat": 48.84228592360469,
      "stop_lon": 2.3208534383022275,
      "route_id": "IDFM:C01383",
      "parent_station": "IDFM:71139"
    },
    {
      "stop_id": "IDFM:462955",
      "stop_name": "Montparnasse Bienvenue",
      "stop_lat": 48.84213060781436,
      "stop_lon": 2.3212187199903807,
      "route_id": "IDFM:C01376",
      "parent_station": "IDFM:71139"
    },
    {
      "stop_id": "IDFM:462956",
      "stop_name": "Exelmans",
      "stop_lat": 48.842624465259945,
      "stop_lon": 2.25967486021195,
      "route_id": "IDFM:C01379",
      "parent_station": "IDFM:71124"
    },
    {
      "stop_id": "IDFM:462957",
      "stop_name": "Miromesnil",
      "stop_lat": 48.87369210197914,
      "stop_lon": 2.3146768238242688,
      "route_id": "IDFM:C01379",
      "parent_station": "IDFM:71346"
    },
    {
      "stop_id": "IDFM:462958",
      "stop_name": "Javel - André Citroën",
      "stop_lat": 48.846086877931405,
      "stop_lon": 2.2780435059854063,
      "route_id": "IDFM:C01380",
      "parent_station": "IDFM:71150"
    },
    {
      "stop_id": "IDFM:462959",
      "stop_name": "Vaneau",
      "stop_lat": 48.84889457005888,
      "stop_lon": 2.3213512423547358,
      "route_id": "IDFM:C01380",
      "parent_station": "IDFM:71170"
    },
    {
      "stop_id": "IDFM:462960",
      "stop_name": "République",
      "stop_lat": 48.86788497134881,
      "stop_lon": 2.3648796725347783,
      "route_id": "IDFM:C01381",
      "parent_station": "IDFM:71311"
    },
    {
      "stop_id": "IDFM:462961",
      "stop_name": "République",
      "stop_lat": 48.867732931981166,
      "stop_lon": 2.3641925544688656,
      "route_id": "IDFM:C01375",
      "parent_station": "IDFM:71311"
    },